{
  "stations": [
    {
      "name": "Berlin Hauptbahnhof",
      "latitude": 52.525,
      "longitude": 13.369
    },
    {
      "name": "Berlin Hauptbahnhof",
      "latitude": 52.525,
      "longitude": 13.369
    },
    {
      "name": "Berlin Hauptbahnhof",
      "latitude": 52.525,
      "longitude": 13.369
    },
    {
      "name": "Berlin Hauptbahnhof",
      "latitude": 52.525,
      "longitude": 13.369
    },
    {
      "name": "Berlin Hauptbahnhof",
      "latitude": 52.525,
      "longitude": 13.369
    },
    {
      "name": "Berlin Hauptbahnhof",
      "latitude": 52.525,
      "longitude": 13.369
    },
    {
      "name": "Berlin Hauptbahnhof",
      "latitude": 52.525,
      "longitude": 13.369
    },
    {
      "name": "Berlin Hauptbahnhof",
      "latitude": 52.525,
      "longitude": 13.369
    },
    {
      "name": "Berlin Hauptbahnhof",
      "latitude": 52.525,
      "longitude": 13.369
    },
    {
      "name": "Berlin Hauptbahnhof",
      "latitude": 52.525,
      "longitude": 13.369
    },
    {
      "name": "M\u00fcnchen Hauptbahnhof",
      "latitude": 48.1402,
      "longitude": 11.56
    },
    {
      "name": "M\u00fcnchen Hauptbahnhof",
      "latitude": 48.1402,
      "longitude": 11.56
    },
    {
      "name": "M\u00fcnchen Hauptbahnhof",
      "latitude": 48.1402,
      "longitude": 11.56
    },
    {
      "name": "M\u00fcnchen Hauptbahnhof",
      "latitude": 48.1402,
      "longitude": 11.56
    },
    {
      "name": "M\u00fcnchen Hauptbahnhof",
      "latitude": 48.1402,
      "longitude": 11.56
    },
    {
      "name": "M\u00fcnchen Hauptbahnhof",
      "latitude": 48.1402,
      "longitude": 11.56
    },
    {
      "name": "M\u00fcnchen Hauptbahnhof",
      "latitude": 48.1402,
      "longitude": 11.56
    },
    {
      "name": "M\u00fcnchen Hauptbahnhof",
      "latitude": 48.1402,
      "longitude": 11.56
    },
    {
      "name": "M\u00fcnchen Hauptbahnhof",
      "latitude": 48.1402,
      "longitude": 11.56
    },
    {
      "name": "M\u00fcnchen Hauptbahnhof",
      "latitude": 48.1402,
      "longitude": 11.56
    },
    {
      "name": "Frankfurt Hauptbahnhof",
      "latitude": 50.1071,
      "longitude": 8.6636
    },
    {
      "name": "Frankfurt Hauptbahnhof",
      "latitude": 50.1071,
      "longitude": 8.6636
    },
    {
      "name": "Frankfurt Hauptbahnhof",
      "latitude": 50.1071,
      "longitude": 8.6636
    },
    {
      "name": "Frankfurt Hauptbahnhof",
      "latitude": 50.1071,
      "longitude": 8.6636
    },
    {
      "name": "Frankfurt Hauptbahnhof",
      "latitude": 50.1071,
      "longitude": 8.6636
    },
    {
      "name": "Frankfurt Hauptbahnhof",
      "latitude": 50.1071,
      "longitude": 8.6636
    },
    {
      "name": "Frankfurt Hauptbahnhof",
      "latitude": 50.1071,
      "longitude": 8.6636
    },
    {
      "name": "Frankfurt Hauptbahnhof",
      "latitude": 50.1071,
      "longitude": 8.6636
    },
    {
      "name": "Frankfurt Hauptbahnhof",
      "latitude": 50.1071,
      "longitude": 8.6636
    },
    {
      "name": "Frankfurt Hauptbahnhof",
      "latitude": 50.1071,
      "longitude": 8.6636
    },
    {
      "name": "Hamburg Hauptbahnhof",
      "latitude": 53.5533,
      "longitude": 10.0064
    },
    {
      "name": "Hamburg Hauptbahnhof",
      "latitude": 53.5533,
      "longitude": 10.0064
    },
    {
      "name": "Hamburg Hauptbahnhof",
      "latitude": 53.5533,
      "longitude": 10.0064
    },
    {
      "name": "Hamburg Hauptbahnhof",
      "latitude": 53.5533,
      "longitude": 10.0064
    },
    {
      "name": "Hamburg Hauptbahnhof",
      "latitude": 53.5533,
      "longitude": 10.0064
    },
    {
      "name": "Hamburg Hauptbahnhof",
      "latitude": 53.5533,
      "longitude": 10.0064
    },
    {
      "name": "Hamburg Hauptbahnhof",
      "latitude": 53.5533,
      "longitude": 10.0064
    },
    {
      "name": "Hamburg Hauptbahnhof",
      "latitude": 53.5533,
      "longitude": 10.0064
    },
    {
      "name": "Hamburg Hauptbahnhof",
      "latitude": 53.5533,
      "longitude": 10.0064
    },
    {
      "name": "Hamburg Hauptbahnhof",
      "latitude": 53.5533,
      "longitude": 10.0064
    },
    {
      "name": "K\u00f6ln Hauptbahnhof",
      "latitude": 50.9432,
      "longitude": 6.9587
    },
    {
      "name": "K\u00f6ln Hauptbahnhof",
      "latitude": 50.9432,
      "longitude": 6.9587
    },
    {
      "name": "K\u00f6ln Hauptbahnhof",
      "latitude": 50.9432,
      "longitude": 6.9587
    },
    {
      "name": "K\u00f6ln Hauptbahnhof",
      "latitude": 50.9432,
      "longitude": 6.9587
    },
    {
      "name": "K\u00f6ln Hauptbahnhof",
      "latitude": 50.9432,
      "longitude": 6.9587
    },
    {
      "name": "K\u00f6ln Hauptbahnhof",
      "latitude": 50.9432,
      "longitude": 6.9587
    },
    {
      "name": "K\u00f6ln Hauptbahnhof",
      "latitude": 50.9432,
      "longitude": 6.9587
    },
    {
      "name": "K\u00f6ln Hauptbahnhof",
      "latitude": 50.9432,
      "longitude": 6.9587
    },
    {
      "name": "K\u00f6ln Hauptbahnhof",
      "latitude": 50.9432,
      "longitude": 6.9587
    },
    {
      "name": "K\u00f6ln Hauptbahnhof",
      "latitude": 50.9432,
      "longitude": 6.9587
    },
    {
      "name": "Stuttgart Hauptbahnhof",
      "latitude": 48.7841,
      "longitude": 9.1817
    },
    {
      "name": "Stuttgart Hauptbahnhof",
      "latitude": 48.7841,
      "longitude": 9.1817
    },
    {
      "name": "Stuttgart Hauptbahnhof",
      "latitude": 48.7841,
      "longitude": 9.1817
    },
    {
      "name": "Stuttgart Hauptbahnhof",
      "latitude": 48.7841,
      "longitude": 9.1817
    },
    {
      "name": "Stuttgart Hauptbahnhof",
      "latitude": 48.7841,
      "longitude": 9.1817
    },
    {
      "name": "Stuttgart Hauptbahnhof",
      "latitude": 48.7841,
      "longitude": 9.1817
    },
    {
      "name": "Stuttgart Hauptbahnhof",
      "latitude": 48.7841,
      "longitude": 9.1817
    },
    {
      "name": "Stuttgart Hauptbahnhof",
      "latitude": 48.7841,
      "longitude": 9.1817
    },
    {
      "name": "Stuttgart Hauptbahnhof",
      "latitude": 48.7841,
      "longitude": 9.1817
    },
    {
      "name": "Stuttgart Hauptbahnhof",
      "latitude": 48.7841,
      "longitude": 9.1817
    },
    {
      "name": "D\u00fcsseldorf Hauptbahnhof",
      "latitude": 51.2198,
      "longitude": 6.7942
    },
    {
      "name": "D\u00fcsseldorf Hauptbahnhof",
      "latitude": 51.2198,
      "longitude": 6.7942
    },
    {
      "name": "D\u00fcsseldorf Hauptbahnhof",
      "latitude": 51.2198,
      "longitude": 6.7942
    },
    {
      "name": "D\u00fcsseldorf Hauptbahnhof",
      "latitude": 51.2198,
      "longitude": 6.7942
    },
    {
      "name": "D\u00fcsseldorf Hauptbahnhof",
      "latitude": 51.2198,
      "longitude": 6.7942
    },
    {
      "name": "D\u00fcsseldorf Hauptbahnhof",
      "latitude": 51.2198,
      "longitude": 6.7942
    },
    {
      "name": "D\u00fcsseldorf Hauptbahnhof",
      "latitude": 51.2198,
      "longitude": 6.7942
    },
    {
      "name": "D\u00fcsseldorf Hauptbahnhof",
      "latitude": 51.2198,
      "longitude": 6.7942
    },
    {
      "name": "D\u00fcsseldorf Hauptbahnhof",
      "latitude": 51.2198,
      "longitude": 6.7942
    },
    {
      "name": "D\u00fcsseldorf Hauptbahnhof",
      "latitude": 51.2198,
      "longitude": 6.7942
    },
    {
      "name": "Dresden Hauptbahnhof",
      "latitude": 51.0404,
      "longitude": 13.7315
    },
    {
      "name": "Dresden Hauptbahnhof",
      "latitude": 51.0404,
      "longitude": 13.7315
    },
    {
      "name": "Dresden Hauptbahnhof",
      "latitude": 51.0404,
      "longitude": 13.7315
    },
    {
      "name": "Dresden Hauptbahnhof",
      "latitude": 51.0404,
      "longitude": 13.7315
    },
    {
      "name": "Dresden Hauptbahnhof",
      "latitude": 51.0404,
      "longitude": 13.7315
    },
    {
      "name": "Dresden Hauptbahnhof",
      "latitude": 51.0404,
      "longitude": 13.7315
    },
    {
      "name": "Dresden Hauptbahnhof",
      "latitude": 51.0404,
      "longitude": 13.7315
    },
    {
      "name": "Dresden Hauptbahnhof",
      "latitude": 51.0404,
      "longitude": 13.7315
    },
    {
      "name": "Dresden Hauptbahnhof",
      "latitude": 51.0404,
      "longitude": 13.7315
    },
    {
      "name": "Dresden Hauptbahnhof",
      "latitude": 51.0404,
      "longitude": 13.7315
    },
    {
      "name": "Hannover Hauptbahnhof",
      "latitude": 52.3772,
      "longitude": 9.742
    },
    {
      "name": "Hannover Hauptbahnhof",
      "latitude": 52.3772,
      "longitude": 9.742
    },
    {
      "name": "Hannover Hauptbahnhof",
      "latitude": 52.3772,
      "longitude": 9.742
    },
    {
      "name": "Hannover Hauptbahnhof",
      "latitude": 52.3772,
      "longitude": 9.742
    },
    {
      "name": "Hannover Hauptbahnhof",
      "latitude": 52.3772,
      "longitude": 9.742
    },
    {
      "name": "Hannover Hauptbahnhof",
      "latitude": 52.3772,
      "longitude": 9.742
    },
    {
      "name": "Hannover Hauptbahnhof",
      "latitude": 52.3772,
      "longitude": 9.742
    },
    {
      "name": "Hannover Hauptbahnhof",
      "latitude": 52.3772,
      "longitude": 9.742
    },
    {
      "name": "Hannover Hauptbahnhof",
      "latitude": 52.3772,
      "longitude": 9.742
    },
    {
      "name": "Hannover Hauptbahnhof",
      "latitude": 52.3772,
      "longitude": 9.742
    },
    {
      "name": "Leipzig Hauptbahnhof",
      "latitude": 51.3455,
      "longitude": 12.3819
    },
    {
      "name": "Leipzig Hauptbahnhof",
      "latitude": 51.3455,
      "longitude": 12.3819
    },
    {
      "name": "Leipzig Hauptbahnhof",
      "latitude": 51.3455,
      "longitude": 12.3819
    },
    {
      "name": "Leipzig Hauptbahnhof",
      "latitude": 51.3455,
      "longitude": 12.3819
    },
    {
      "name": "Leipzig Hauptbahnhof",
      "latitude": 51.3455,
      "longitude": 12.3819
    },
    {
      "name": "Leipzig Hauptbahnhof",
      "latitude": 51.3455,
      "longitude": 12.3819
    },
    {
      "name": "Leipzig Hauptbahnhof",
      "latitude": 51.3455,
      "longitude": 12.3819
    },
    {
      "name": "Leipzig Hauptbahnhof",
      "latitude": 51.3455,
      "longitude": 12.3819
    },
    {
      "name": "Leipzig Hauptbahnhof",
      "latitude": 51.3455,
      "longitude": 12.3819
    },
    {
      "name": "Leipzig Hauptbahnhof",
      "latitude": 51.3455,
      "longitude": 12.3819
    },
    {
      "name": "N\u00fcrnberg Hauptbahnhof",
      "latitude": 49.445,
      "longitude": 11.0825
    },
    {
      "name": "N\u00fcrnberg Hauptbahnhof",
      "latitude": 49.445,
      "longitude": 11.0825
    },
    {
      "name": "N\u00fcrnberg Hauptbahnhof",
      "latitude": 49.445,
      "longitude": 11.0825
    },
    {
      "name": "N\u00fcrnberg Hauptbahnhof",
      "latitude": 49.445,
      "longitude": 11.0825
    },
    {
      "name": "N\u00fcrnberg Hauptbahnhof",
      "latitude": 49.445,
      "longitude": 11.0825
    },
    {
      "name": "N\u00fcrnberg Hauptbahnhof",
      "latitude": 49.445,
      "longitude": 11.0825
    },
    {
      "name": "N\u00fcrnberg Hauptbahnhof",
      "latitude": 49.445,
      "longitude": 11.0825
    },
    {
      "name": "N\u00fcrnberg Hauptbahnhof",
      "latitude": 49.445,
      "longitude": 11.0825
    },
    {
      "name": "N\u00fcrnberg Hauptbahnhof",
      "latitude": 49.445,
      "longitude": 11.0825
    },
    {
      "name": "N\u00fcrnberg Hauptbahnhof",
      "latitude": 49.445,
      "longitude": 11.0825
    },
    {
      "name": "Paris Gare du Nord",
      "latitude": 48.8809,
      "longitude": 2.3553
    },
    {
      "name": "Paris Gare du Nord",
      "latitude": 48.8809,
      "longitude": 2.3553
    },
    {
      "name": "Paris Gare du Nord",
      "latitude": 48.8809,
      "longitude": 2.3553
    },
    {
      "name": "Paris Gare du Nord",
      "latitude": 48.8809,
      "longitude": 2.3553
    },
    {
      "name": "Paris Gare du Nord",
      "latitude": 48.8809,
      "longitude": 2.3553
    },
    {
      "name": "Paris Gare du Nord",
      "latitude": 48.8809,
      "longitude": 2.3553
    },
    {
      "name": "Paris Gare du Nord",
      "latitude": 48.8809,
      "longitude": 2.3553
    },
    {
      "name": "Paris Gare du Nord",
      "latitude": 48.8809,
      "longitude": 2.3553
    },
    {
      "name": "Paris Gare du Nord",
      "latitude": 48.8809,
      "longitude": 2.3553
    },
    {
      "name": "Paris Gare du Nord",
      "latitude": 48.8809,
      "longitude": 2.3553
    },
    {
      "name": "Paris Gare du Nord",
      "latitude": 48.8809,
      "longitude": 2.3553
    },
    {
      "name": "Lyon Part-Dieu",
      "latitude": 45.7601,
      "longitude": 4.8591
    },
    {
      "name": "Lyon Part-Dieu",
      "latitude": 45.7601,
      "longitude": 4.8591
    },
    {
      "name": "Lyon Part-Dieu",
      "latitude": 45.7601,
      "longitude": 4.8591
    },
    {
      "name": "Lyon Part-Dieu",
      "latitude": 45.7601,
      "longitude": 4.8591
    },
    {
      "name": "Lyon Part-Dieu",
      "latitude": 45.7601,
      "longitude": 4.8591
    },
    {
      "name": "Lyon Part-Dieu",
      "latitude": 45.7601,
      "longitude": 4.8591
    },
    {
      "name": "Lyon Part-Dieu",
      "latitude": 45.7601,
      "longitude": 4.8591
    },
    {
      "name": "Lyon Part-Dieu",
      "latitude": 45.7601,
      "longitude": 4.8591
    },
    {
      "name": "Lyon Part-Dieu",
      "latitude": 45.7601,
      "longitude": 4.8591
    },
    {
      "name": "Lyon Part-Dieu",
      "latitude": 45.7601,
      "longitude": 4.8591
    },
    {
      "name": "Lyon Part-Dieu",
      "latitude": 45.7601,
      "longitude": 4.8591
    },
    {
      "name": "Marseille Saint-Charles",
      "latitude": 43.3036,
      "longitude": 5.3831
    },
    {
      "name": "Marseille Saint-Charles",
      "latitude": 43.3036,
      "longitude": 5.3831
    },
    {
      "name": "Marseille Saint-Charles",
      "latitude": 43.3036,
      "longitude": 5.3831
    },
    {
      "name": "Marseille Saint-Charles",
      "latitude": 43.3036,
      "longitude": 5.3831
    },
    {
      "name": "Marseille Saint-Charles",
      "latitude": 43.3036,
      "longitude": 5.3831
    },
    {
      "name": "Marseille Saint-Charles",
      "latitude": 43.3036,
      "longitude": 5.3831
    },
    {
      "name": "Marseille Saint-Charles",
      "latitude": 43.3036,
      "longitude": 5.3831
    },
    {
      "name": "Marseille Saint-Charles",
      "latitude": 43.3036,
      "longitude": 5.3831
    },
    {
      "name": "Marseille Saint-Charles",
      "latitude": 43.3036,
      "longitude": 5.3831
    },
    {
      "name": "Marseille Saint-Charles",
      "latitude": 43.3036,
      "longitude": 5.3831
    },
    {
      "name": "Marseille Saint-Charles",
      "latitude": 43.3036,
      "longitude": 5.3831
    },
    {
      "name": "Bordeaux Saint-Jean",
      "latitude": 44.8263,
      "longitude": -0.5553
    },
    {
      "name": "Bordeaux Saint-Jean",
      "latitude": 44.8263,
      "longitude": -0.5553
    },
    {
      "name": "Bordeaux Saint-Jean",
      "latitude": 44.8263,
      "longitude": -0.5553
    },
    {
      "name": "Bordeaux Saint-Jean",
      "latitude": 44.8263,
      "longitude": -0.5553
    },
    {
      "name": "Bordeaux Saint-Jean",
      "latitude": 44.8263,
      "longitude": -0.5553
    },
    {
      "name": "Bordeaux Saint-Jean",
      "latitude": 44.8263,
      "longitude": -0.5553
    },
    {
      "name": "Bordeaux Saint-Jean",
      "latitude": 44.8263,
      "longitude": -0.5553
    },
    {
      "name": "Bordeaux Saint-Jean",
      "latitude": 44.8263,
      "longitude": -0.5553
    },
    {
      "name": "Bordeaux Saint-Jean",
      "latitude": 44.8263,
      "longitude": -0.5553
    },
    {
      "name": "Bordeaux Saint-Jean",
      "latitude": 44.8263,
      "longitude": -0.5553
    },
    {
      "name": "Bordeaux Saint-Jean",
      "latitude": 44.8263,
      "longitude": -0.5553
    },
    {
      "name": "Lille Europe",
      "latitude": 50.6392,
      "longitude": 3.0728
    },
    {
      "name": "Lille Europe",
      "latitude": 50.6392,
      "longitude": 3.0728
    },
    {
      "name": "Lille Europe",
      "latitude": 50.6392,
      "longitude": 3.0728
    },
    {
      "name": "Lille Europe",
      "latitude": 50.6392,
      "longitude": 3.0728
    },
    {
      "name": "Lille Europe",
      "latitude": 50.6392,
      "longitude": 3.0728
    },
    {
      "name": "Lille Europe",
      "latitude": 50.6392,
      "longitude": 3.0728
    },
    {
      "name": "Lille Europe",
      "latitude": 50.6392,
      "longitude": 3.0728
    },
    {
      "name": "Lille Europe",
      "latitude": 50.6392,
      "longitude": 3.0728
    },
    {
      "name": "Lille Europe",
      "latitude": 50.6392,
      "longitude": 3.0728
    },
    {
      "name": "Lille Europe",
      "latitude": 50.6392,
      "longitude": 3.0728
    },
    {
      "name": "Lille Europe",
      "latitude": 50.6392,
      "longitude": 3.0728
    },
    {
      "name": "Paris Gare de Lyon",
      "latitude": 48.8449,
      "longitude": 2.3743
    },
    {
      "name": "Paris Gare de Lyon",
      "latitude": 48.8449,
      "longitude": 2.3743
    },
    {
      "name": "Paris Gare de Lyon",
      "latitude": 48.8449,
      "longitude": 2.3743
    },
    {
      "name": "Paris Gare de Lyon",
      "latitude": 48.8449,
      "longitude": 2.3743
    },
    {
      "name": "Paris Gare de Lyon",
      "latitude": 48.8449,
      "longitude": 2.3743
    },
    {
      "name": "Paris Gare de Lyon",
      "latitude": 48.8449,
      "longitude": 2.3743
    },
    {
      "name": "Paris Gare de Lyon",
      "latitude": 48.8449,
      "longitude": 2.3743
    },
    {
      "name": "Paris Gare de Lyon",
      "latitude": 48.8449,
      "longitude": 2.3743
    },
    {
      "name": "Paris Gare de Lyon",
      "latitude": 48.8449,
      "longitude": 2.3743
    },
    {
      "name": "Paris Gare de Lyon",
      "latitude": 48.8449,
      "longitude": 2.3743
    },
    {
      "name": "Paris Gare de Lyon",
      "latitude": 48.8449,
      "longitude": 2.3743
    },
    {
      "name": "Nice Ville",
      "latitude": 43.7049,
      "longitude": 7.2619
    },
    {
      "name": "Nice Ville",
      "latitude": 43.7049,
      "longitude": 7.2619
    },
    {
      "name": "Nice Ville",
      "latitude": 43.7049,
      "longitude": 7.2619
    },
    {
      "name": "Nice Ville",
      "latitude": 43.7049,
      "longitude": 7.2619
    },
    {
      "name": "Nice Ville",
      "latitude": 43.7049,
      "longitude": 7.2619
    },
    {
      "name": "Nice Ville",
      "latitude": 43.7049,
      "longitude": 7.2619
    },
    {
      "name": "Nice Ville",
      "latitude": 43.7049,
      "longitude": 7.2619
    },
    {
      "name": "Nice Ville",
      "latitude": 43.7049,
      "longitude": 7.2619
    },
    {
      "name": "Nice Ville",
      "latitude": 43.7049,
      "longitude": 7.2619
    },
    {
      "name": "Nice Ville",
      "latitude": 43.7049,
      "longitude": 7.2619
    },
    {
      "name": "Nice Ville",
      "latitude": 43.7049,
      "longitude": 7.2619
    },
    {
      "name": "Strasbourg Gare Centrale",
      "latitude": 48.5855,
      "longitude": 7.7348
    },
    {
      "name": "Strasbourg Gare Centrale",
      "latitude": 48.5855,
      "longitude": 7.7348
    },
    {
      "name": "Strasbourg Gare Centrale",
      "latitude": 48.5855,
      "longitude": 7.7348
    },
    {
      "name": "Strasbourg Gare Centrale",
      "latitude": 48.5855,
      "longitude": 7.7348
    },
    {
      "name": "Strasbourg Gare Centrale",
      "latitude": 48.5855,
      "longitude": 7.7348
    },
    {
      "name": "Strasbourg Gare Centrale",
      "latitude": 48.5855,
      "longitude": 7.7348
    },
    {
      "name": "Strasbourg Gare Centrale",
      "latitude": 48.5855,
      "longitude": 7.7348
    },
    {
      "name": "Strasbourg Gare Centrale",
      "latitude": 48.5855,
      "longitude": 7.7348
    },
    {
      "name": "Strasbourg Gare Centrale",
      "latitude": 48.5855,
      "longitude": 7.7348
    },
    {
      "name": "Strasbourg Gare Centrale",
      "latitude": 48.5855,
      "longitude": 7.7348
    },
    {
      "name": "Strasbourg Gare Centrale",
      "latitude": 48.5855,
      "longitude": 7.7348
    },
    {
      "name": "Nantes",
      "latitude": 47.2173,
      "longitude": -1.5419
    },
    {
      "name": "Nantes",
      "latitude": 47.2173,
      "longitude": -1.5419
    },
    {
      "name": "Nantes",
      "latitude": 47.2173,
      "longitude": -1.5419
    },
    {
      "name": "Nantes",
      "latitude": 47.2173,
      "longitude": -1.5419
    },
    {
      "name": "Nantes",
      "latitude": 47.2173,
      "longitude": -1.5419
    },
    {
      "name": "Nantes",
      "latitude": 47.2173,
      "longitude": -1.5419
    },
    {
      "name": "Nantes",
      "latitude": 47.2173,
      "longitude": -1.5419
    },
    {
      "name": "Nantes",
      "latitude": 47.2173,
      "longitude": -1.5419
    },
    {
      "name": "Nantes",
      "latitude": 47.2173,
      "longitude": -1.5419
    },
    {
      "name": "Nantes",
      "latitude": 47.2173,
      "longitude": -1.5419
    },
    {
      "name": "Nantes",
      "latitude": 47.2173,
      "longitude": -1.5419
    },
    {
      "name": "Toulouse Matabiau",
      "latitude": 43.6112,
      "longitude": 1.4567
    },
    {
      "name": "Toulouse Matabiau",
      "latitude": 43.6112,
      "longitude": 1.4567
    },
    {
      "name": "Toulouse Matabiau",
      "latitude": 43.6112,
      "longitude": 1.4567
    },
    {
      "name": "Toulouse Matabiau",
      "latitude": 43.6112,
      "longitude": 1.4567
    },
    {
      "name": "Toulouse Matabiau",
      "latitude": 43.6112,
      "longitude": 1.4567
    },
    {
      "name": "Toulouse Matabiau",
      "latitude": 43.6112,
      "longitude": 1.4567
    },
    {
      "name": "Toulouse Matabiau",
      "latitude": 43.6112,
      "longitude": 1.4567
    },
    {
      "name": "Toulouse Matabiau",
      "latitude": 43.6112,
      "longitude": 1.4567
    },
    {
      "name": "Toulouse Matabiau",
      "latitude": 43.6112,
      "longitude": 1.4567
    },
    {
      "name": "Toulouse Matabiau",
      "latitude": 43.6112,
      "longitude": 1.4567
    },
    {
      "name": "Toulouse Matabiau",
      "latitude": 43.6112,
      "longitude": 1.4567
    },
    {
      "name": "Rennes",
      "latitude": 48.1043,
      "longitude": -1.6726
    },
    {
      "name": "Rennes",
      "latitude": 48.1043,
      "longitude": -1.6726
    },
    {
      "name": "Rennes",
      "latitude": 48.1043,
      "longitude": -1.6726
    },
    {
      "name": "Rennes",
      "latitude": 48.1043,
      "longitude": -1.6726
    },
    {
      "name": "Rennes",
      "latitude": 48.1043,
      "longitude": -1.6726
    },
    {
      "name": "Rennes",
      "latitude": 48.1043,
      "longitude": -1.6726
    },
    {
      "name": "Rennes",
      "latitude": 48.1043,
      "longitude": -1.6726
    },
    {
      "name": "Rennes",
      "latitude": 48.1043,
      "longitude": -1.6726
    },
    {
      "name": "Rennes",
      "latitude": 48.1043,
      "longitude": -1.6726
    },
    {
      "name": "Rennes",
      "latitude": 48.1043,
      "longitude": -1.6726
    },
    {
      "name": "Rennes",
      "latitude": 48.1043,
      "longitude": -1.6726
    },
    {
      "name": "Montpellier Saint-Roch",
      "latitude": 43.6034,
      "longitude": 3.8798
    },
    {
      "name": "Montpellier Saint-Roch",
      "latitude": 43.6034,
      "longitude": 3.8798
    },
    {
      "name": "Montpellier Saint-Roch",
      "latitude": 43.6034,
      "longitude": 3.8798
    },
    {
      "name": "Montpellier Saint-Roch",
      "latitude": 43.6034,
      "longitude": 3.8798
    },
    {
      "name": "Montpellier Saint-Roch",
      "latitude": 43.6034,
      "longitude": 3.8798
    },
    {
      "name": "Montpellier Saint-Roch",
      "latitude": 43.6034,
      "longitude": 3.8798
    },
    {
      "name": "Montpellier Saint-Roch",
      "latitude": 43.6034,
      "longitude": 3.8798
    },
    {
      "name": "Montpellier Saint-Roch",
      "latitude": 43.6034,
      "longitude": 3.8798
    },
    {
      "name": "Montpellier Saint-Roch",
      "latitude": 43.6034,
      "longitude": 3.8798
    },
    {
      "name": "Montpellier Saint-Roch",
      "latitude": 43.6034,
      "longitude": 3.8798
    },
    {
      "name": "Montpellier Saint-Roch",
      "latitude": 43.6034,
      "longitude": 3.8798
    },
    {
      "name": "Roma Termini",
      "latitude": 41.901,
      "longitude": 12.5011
    },
    {
      "name": "Roma Termini",
      "latitude": 41.901,
      "longitude": 12.5011
    },
    {
      "name": "Roma Termini",
      "latitude": 41.901,
      "longitude": 12.5011
    },
    {
      "name": "Roma Termini",
      "latitude": 41.901,
      "longitude": 12.5011
    },
    {
      "name": "Roma Termini",
      "latitude": 41.901,
      "longitude": 12.5011
    },
    {
      "name": "Roma Termini",
      "latitude": 41.901,
      "longitude": 12.5011
    },
    {
      "name": "Roma Termini",
      "latitude": 41.901,
      "longitude": 12.5011
    },
    {
      "name": "Roma Termini",
      "latitude": 41.901,
      "longitude": 12.5011
    },
    {
      "name": "Roma Termini",
      "latitude": 41.901,
      "longitude": 12.5011
    },
    {
      "name": "Roma Termini",
      "latitude": 41.901,
      "longitude": 12.5011
    },
    {
      "name": "Milano Centrale",
      "latitude": 45.4862,
      "longitude": 9.205
    },
    {
      "name": "Milano Centrale",
      "latitude": 45.4862,
      "longitude": 9.205
    },
    {
      "name": "Milano Centrale",
      "latitude": 45.4862,
      "longitude": 9.205
    },
    {
      "name": "Milano Centrale",
      "latitude": 45.4862,
      "longitude": 9.205
    },
    {
      "name": "Milano Centrale",
      "latitude": 45.4862,
      "longitude": 9.205
    },
    {
      "name": "Milano Centrale",
      "latitude": 45.4862,
      "longitude": 9.205
    },
    {
      "name": "Milano Centrale",
      "latitude": 45.4862,
      "longitude": 9.205
    },
    {
      "name": "Milano Centrale",
      "latitude": 45.4862,
      "longitude": 9.205
    },
    {
      "name": "Milano Centrale",
      "latitude": 45.4862,
      "longitude": 9.205
    },
    {
      "name": "Milano Centrale",
      "latitude": 45.4862,
      "longitude": 9.205
    },
    {
      "name": "Firenze Santa Maria Novella",
      "latitude": 43.7764,
      "longitude": 11.2481
    },
    {
      "name": "Firenze Santa Maria Novella",
      "latitude": 43.7764,
      "longitude": 11.2481
    },
    {
      "name": "Firenze Santa Maria Novella",
      "latitude": 43.7764,
      "longitude": 11.2481
    },
    {
      "name": "Firenze Santa Maria Novella",
      "latitude": 43.7764,
      "longitude": 11.2481
    },
    {
      "name": "Firenze Santa Maria Novella",
      "latitude": 43.7764,
      "longitude": 11.2481
    },
    {
      "name": "Firenze Santa Maria Novella",
      "latitude": 43.7764,
      "longitude": 11.2481
    },
    {
      "name": "Firenze Santa Maria Novella",
      "latitude": 43.7764,
      "longitude": 11.2481
    },
    {
      "name": "Firenze Santa Maria Novella",
      "latitude": 43.7764,
      "longitude": 11.2481
    },
    {
      "name": "Firenze Santa Maria Novella",
      "latitude": 43.7764,
      "longitude": 11.2481
    },
    {
      "name": "Firenze Santa Maria Novella",
      "latitude": 43.7764,
      "longitude": 11.2481
    },
    {
      "name": "Venezia Santa Lucia",
      "latitude": 45.4416,
      "longitude": 12.3254
    },
    {
      "name": "Venezia Santa Lucia",
      "latitude": 45.4416,
      "longitude": 12.3254
    },
    {
      "name": "Venezia Santa Lucia",
      "latitude": 45.4416,
      "longitude": 12.3254
    },
    {
      "name": "Venezia Santa Lucia",
      "latitude": 45.4416,
      "longitude": 12.3254
    },
    {
      "name": "Venezia Santa Lucia",
      "latitude": 45.4416,
      "longitude": 12.3254
    },
    {
      "name": "Venezia Santa Lucia",
      "latitude": 45.4416,
      "longitude": 12.3254
    },
    {
      "name": "Venezia Santa Lucia",
      "latitude": 45.4416,
      "longitude": 12.3254
    },
    {
      "name": "Venezia Santa Lucia",
      "latitude": 45.4416,
      "longitude": 12.3254
    },
    {
      "name": "Venezia Santa Lucia",
      "latitude": 45.4416,
      "longitude": 12.3254
    },
    {
      "name": "Venezia Santa Lucia",
      "latitude": 45.4416,
      "longitude": 12.3254
    },
    {
      "name": "Napoli Centrale",
      "latitude": 40.8518,
      "longitude": 14.272
    },
    {
      "name": "Napoli Centrale",
      "latitude": 40.8518,
      "longitude": 14.272
    },
    {
      "name": "Napoli Centrale",
      "latitude": 40.8518,
      "longitude": 14.272
    },
    {
      "name": "Napoli Centrale",
      "latitude": 40.8518,
      "longitude": 14.272
    },
    {
      "name": "Napoli Centrale",
      "latitude": 40.8518,
      "longitude": 14.272
    },
    {
      "name": "Napoli Centrale",
      "latitude": 40.8518,
      "longitude": 14.272
    },
    {
      "name": "Napoli Centrale",
      "latitude": 40.8518,
      "longitude": 14.272
    },
    {
      "name": "Napoli Centrale",
      "latitude": 40.8518,
      "longitude": 14.272
    },
    {
      "name": "Napoli Centrale",
      "latitude": 40.8518,
      "longitude": 14.272
    },
    {
      "name": "Napoli Centrale",
      "latitude": 40.8518,
      "longitude": 14.272
    },
    {
      "name": "Torino Porta Nuova",
      "latitude": 45.0601,
      "longitude": 7.6764
    },
    {
      "name": "Torino Porta Nuova",
      "latitude": 45.0601,
      "longitude": 7.6764
    },
    {
      "name": "Torino Porta Nuova",
      "latitude": 45.0601,
      "longitude": 7.6764
    },
    {
      "name": "Torino Porta Nuova",
      "latitude": 45.0601,
      "longitude": 7.6764
    },
    {
      "name": "Torino Porta Nuova",
      "latitude": 45.0601,
      "longitude": 7.6764
    },
    {
      "name": "Torino Porta Nuova",
      "latitude": 45.0601,
      "longitude": 7.6764
    },
    {
      "name": "Torino Porta Nuova",
      "latitude": 45.0601,
      "longitude": 7.6764
    },
    {
      "name": "Torino Porta Nuova",
      "latitude": 45.0601,
      "longitude": 7.6764
    },
    {
      "name": "Torino Porta Nuova",
      "latitude": 45.0601,
      "longitude": 7.6764
    },
    {
      "name": "Torino Porta Nuova",
      "latitude": 45.0601,
      "longitude": 7.6764
    },
    {
      "name": "Bologna Centrale",
      "latitude": 44.5075,
      "longitude": 11.3514
    },
    {
      "name": "Bologna Centrale",
      "latitude": 44.5075,
      "longitude": 11.3514
    },
    {
      "name": "Bologna Centrale",
      "latitude": 44.5075,
      "longitude": 11.3514
    },
    {
      "name": "Bologna Centrale",
      "latitude": 44.5075,
      "longitude": 11.3514
    },
    {
      "name": "Bologna Centrale",
      "latitude": 44.5075,
      "longitude": 11.3514
    },
    {
      "name": "Bologna Centrale",
      "latitude": 44.5075,
      "longitude": 11.3514
    },
    {
      "name": "Bologna Centrale",
      "latitude": 44.5075,
      "longitude": 11.3514
    },
    {
      "name": "Bologna Centrale",
      "latitude": 44.5075,
      "longitude": 11.3514
    },
    {
      "name": "Bologna Centrale",
      "latitude": 44.5075,
      "longitude": 11.3514
    },
    {
      "name": "Bologna Centrale",
      "latitude": 44.5075,
      "longitude": 11.3514
    },
    {
      "name": "Genova Piazza Principe",
      "latitude": 44.4185,
      "longitude": 8.9221
    },
    {
      "name": "Genova Piazza Principe",
      "latitude": 44.4185,
      "longitude": 8.9221
    },
    {
      "name": "Genova Piazza Principe",
      "latitude": 44.4185,
      "longitude": 8.9221
    },
    {
      "name": "Genova Piazza Principe",
      "latitude": 44.4185,
      "longitude": 8.9221
    },
    {
      "name": "Genova Piazza Principe",
      "latitude": 44.4185,
      "longitude": 8.9221
    },
    {
      "name": "Genova Piazza Principe",
      "latitude": 44.4185,
      "longitude": 8.9221
    },
    {
      "name": "Genova Piazza Principe",
      "latitude": 44.4185,
      "longitude": 8.9221
    },
    {
      "name": "Genova Piazza Principe",
      "latitude": 44.4185,
      "longitude": 8.9221
    },
    {
      "name": "Genova Piazza Principe",
      "latitude": 44.4185,
      "longitude": 8.9221
    },
    {
      "name": "Genova Piazza Principe",
      "latitude": 44.4185,
      "longitude": 8.9221
    },
    {
      "name": "Verona Porta Nuova",
      "latitude": 45.4287,
      "longitude": 10.9819
    },
    {
      "name": "Verona Porta Nuova",
      "latitude": 45.4287,
      "longitude": 10.9819
    },
    {
      "name": "Verona Porta Nuova",
      "latitude": 45.4287,
      "longitude": 10.9819
    },
    {
      "name": "Verona Porta Nuova",
      "latitude": 45.4287,
      "longitude": 10.9819
    },
    {
      "name": "Verona Porta Nuova",
      "latitude": 45.4287,
      "longitude": 10.9819
    },
    {
      "name": "Verona Porta Nuova",
      "latitude": 45.4287,
      "longitude": 10.9819
    },
    {
      "name": "Verona Porta Nuova",
      "latitude": 45.4287,
      "longitude": 10.9819
    },
    {
      "name": "Verona Porta Nuova",
      "latitude": 45.4287,
      "longitude": 10.9819
    },
    {
      "name": "Verona Porta Nuova",
      "latitude": 45.4287,
      "longitude": 10.9819
    },
    {
      "name": "Verona Porta Nuova",
      "latitude": 45.4287,
      "longitude": 10.9819
    },
    {
      "name": "Bari Centrale",
      "latitude": 41.1175,
      "longitude": 16.8716
    },
    {
      "name": "Bari Centrale",
      "latitude": 41.1175,
      "longitude": 16.8716
    },
    {
      "name": "Bari Centrale",
      "latitude": 41.1175,
      "longitude": 16.8716
    },
    {
      "name": "Bari Centrale",
      "latitude": 41.1175,
      "longitude": 16.8716
    },
    {
      "name": "Bari Centrale",
      "latitude": 41.1175,
      "longitude": 16.8716
    },
    {
      "name": "Bari Centrale",
      "latitude": 41.1175,
      "longitude": 16.8716
    },
    {
      "name": "Bari Centrale",
      "latitude": 41.1175,
      "longitude": 16.8716
    },
    {
      "name": "Bari Centrale",
      "latitude": 41.1175,
      "longitude": 16.8716
    },
    {
      "name": "Bari Centrale",
      "latitude": 41.1175,
      "longitude": 16.8716
    },
    {
      "name": "Bari Centrale",
      "latitude": 41.1175,
      "longitude": 16.8716
    },
    {
      "name": "Palermo Centrale",
      "latitude": 38.1056,
      "longitude": 13.3623
    },
    {
      "name": "Palermo Centrale",
      "latitude": 38.1056,
      "longitude": 13.3623
    },
    {
      "name": "Palermo Centrale",
      "latitude": 38.1056,
      "longitude": 13.3623
    },
    {
      "name": "Palermo Centrale",
      "latitude": 38.1056,
      "longitude": 13.3623
    },
    {
      "name": "Palermo Centrale",
      "latitude": 38.1056,
      "longitude": 13.3623
    },
    {
      "name": "Palermo Centrale",
      "latitude": 38.1056,
      "longitude": 13.3623
    },
    {
      "name": "Palermo Centrale",
      "latitude": 38.1056,
      "longitude": 13.3623
    },
    {
      "name": "Palermo Centrale",
      "latitude": 38.1056,
      "longitude": 13.3623
    },
    {
      "name": "Palermo Centrale",
      "latitude": 38.1056,
      "longitude": 13.3623
    },
    {
      "name": "Palermo Centrale",
      "latitude": 38.1056,
      "longitude": 13.3623
    },
    {
      "name": "Madrid Atocha",
      "latitude": 40.4065,
      "longitude": -3.6891
    },
    {
      "name": "Madrid Atocha",
      "latitude": 40.4065,
      "longitude": -3.6891
    },
    {
      "name": "Madrid Atocha",
      "latitude": 40.4065,
      "longitude": -3.6891
    },
    {
      "name": "Madrid Atocha",
      "latitude": 40.4065,
      "longitude": -3.6891
    },
    {
      "name": "Madrid Atocha",
      "latitude": 40.4065,
      "longitude": -3.6891
    },
    {
      "name": "Madrid Atocha",
      "latitude": 40.4065,
      "longitude": -3.6891
    },
    {
      "name": "Madrid Atocha",
      "latitude": 40.4065,
      "longitude": -3.6891
    },
    {
      "name": "Madrid Atocha",
      "latitude": 40.4065,
      "longitude": -3.6891
    },
    {
      "name": "Madrid Atocha",
      "latitude": 40.4065,
      "longitude": -3.6891
    },
    {
      "name": "Barcelona Sants",
      "latitude": 41.3793,
      "longitude": 2.14
    },
    {
      "name": "Barcelona Sants",
      "latitude": 41.3793,
      "longitude": 2.14
    },
    {
      "name": "Barcelona Sants",
      "latitude": 41.3793,
      "longitude": 2.14
    },
    {
      "name": "Barcelona Sants",
      "latitude": 41.3793,
      "longitude": 2.14
    },
    {
      "name": "Barcelona Sants",
      "latitude": 41.3793,
      "longitude": 2.14
    },
    {
      "name": "Barcelona Sants",
      "latitude": 41.3793,
      "longitude": 2.14
    },
    {
      "name": "Barcelona Sants",
      "latitude": 41.3793,
      "longitude": 2.14
    },
    {
      "name": "Barcelona Sants",
      "latitude": 41.3793,
      "longitude": 2.14
    },
    {
      "name": "Barcelona Sants",
      "latitude": 41.3793,
      "longitude": 2.14
    },
    {
      "name": "Valencia Joaqu\u00edn Sorolla",
      "latitude": 39.4668,
      "longitude": -0.3764
    },
    {
      "name": "Valencia Joaqu\u00edn Sorolla",
      "latitude": 39.4668,
      "longitude": -0.3764
    },
    {
      "name": "Valencia Joaqu\u00edn Sorolla",
      "latitude": 39.4668,
      "longitude": -0.3764
    },
    {
      "name": "Valencia Joaqu\u00edn Sorolla",
      "latitude": 39.4668,
      "longitude": -0.3764
    },
    {
      "name": "Valencia Joaqu\u00edn Sorolla",
      "latitude": 39.4668,
      "longitude": -0.3764
    },
    {
      "name": "Valencia Joaqu\u00edn Sorolla",
      "latitude": 39.4668,
      "longitude": -0.3764
    },
    {
      "name": "Valencia Joaqu\u00edn Sorolla",
      "latitude": 39.4668,
      "longitude": -0.3764
    },
    {
      "name": "Valencia Joaqu\u00edn Sorolla",
      "latitude": 39.4668,
      "longitude": -0.3764
    },
    {
      "name": "Valencia Joaqu\u00edn Sorolla",
      "latitude": 39.4668,
      "longitude": -0.3764
    },
    {
      "name": "Sevilla Santa Justa",
      "latitude": 37.3917,
      "longitude": -5.9756
    },
    {
      "name": "Sevilla Santa Justa",
      "latitude": 37.3917,
      "longitude": -5.9756
    },
    {
      "name": "Sevilla Santa Justa",
      "latitude": 37.3917,
      "longitude": -5.9756
    },
    {
      "name": "Sevilla Santa Justa",
      "latitude": 37.3917,
      "longitude": -5.9756
    },
    {
      "name": "Sevilla Santa Justa",
      "latitude": 37.3917,
      "longitude": -5.9756
    },
    {
      "name": "Sevilla Santa Justa",
      "latitude": 37.3917,
      "longitude": -5.9756
    },
    {
      "name": "Sevilla Santa Justa",
      "latitude": 37.3917,
      "longitude": -5.9756
    },
    {
      "name": "Sevilla Santa Justa",
      "latitude": 37.3917,
      "longitude": -5.9756
    },
    {
      "name": "Sevilla Santa Justa",
      "latitude": 37.3917,
      "longitude": -5.9756
    },
    {
      "name": "M\u00e1laga Mar\u00eda Zambrano",
      "latitude": 36.7124,
      "longitude": -4.4291
    },
    {
      "name": "M\u00e1laga Mar\u00eda Zambrano",
      "latitude": 36.7124,
      "longitude": -4.4291
    },
    {
      "name": "M\u00e1laga Mar\u00eda Zambrano",
      "latitude": 36.7124,
      "longitude": -4.4291
    },
    {
      "name": "M\u00e1laga Mar\u00eda Zambrano",
      "latitude": 36.7124,
      "longitude": -4.4291
    },
    {
      "name": "M\u00e1laga Mar\u00eda Zambrano",
      "latitude": 36.7124,
      "longitude": -4.4291
    },
    {
      "name": "M\u00e1laga Mar\u00eda Zambrano",
      "latitude": 36.7124,
      "longitude": -4.4291
    },
    {
      "name": "M\u00e1laga Mar\u00eda Zambrano",
      "latitude": 36.7124,
      "longitude": -4.4291
    },
    {
      "name": "M\u00e1laga Mar\u00eda Zambrano",
      "latitude": 36.7124,
      "longitude": -4.4291
    },
    {
      "name": "M\u00e1laga Mar\u00eda Zambrano",
      "latitude": 36.7124,
      "longitude": -4.4291
    },
    {
      "name": "Zaragoza Delicias",
      "latitude": 41.6585,
      "longitude": -0.9127
    },
    {
      "name": "Zaragoza Delicias",
      "latitude": 41.6585,
      "longitude": -0.9127
    },
    {
      "name": "Zaragoza Delicias",
      "latitude": 41.6585,
      "longitude": -0.9127
    },
    {
      "name": "Zaragoza Delicias",
      "latitude": 41.6585,
      "longitude": -0.9127
    },
    {
      "name": "Zaragoza Delicias",
      "latitude": 41.6585,
      "longitude": -0.9127
    },
    {
      "name": "Zaragoza Delicias",
      "latitude": 41.6585,
      "longitude": -0.9127
    },
    {
      "name": "Zaragoza Delicias",
      "latitude": 41.6585,
      "longitude": -0.9127
    },
    {
      "name": "Zaragoza Delicias",
      "latitude": 41.6585,
      "longitude": -0.9127
    },
    {
      "name": "Zaragoza Delicias",
      "latitude": 41.6585,
      "longitude": -0.9127
    },
    {
      "name": "Alicante Terminal",
      "latitude": 38.344,
      "longitude": -0.493
    },
    {
      "name": "Alicante Terminal",
      "latitude": 38.344,
      "longitude": -0.493
    },
    {
      "name": "Alicante Terminal",
      "latitude": 38.344,
      "longitude": -0.493
    },
    {
      "name": "Alicante Terminal",
      "latitude": 38.344,
      "longitude": -0.493
    },
    {
      "name": "Alicante Terminal",
      "latitude": 38.344,
      "longitude": -0.493
    },
    {
      "name": "Alicante Terminal",
      "latitude": 38.344,
      "longitude": -0.493
    },
    {
      "name": "Alicante Terminal",
      "latitude": 38.344,
      "longitude": -0.493
    },
    {
      "name": "Alicante Terminal",
      "latitude": 38.344,
      "longitude": -0.493
    },
    {
      "name": "Alicante Terminal",
      "latitude": 38.344,
      "longitude": -0.493
    },
    {
      "name": "Bilbao Abando",
      "latitude": 43.2613,
      "longitude": -2.9243
    },
    {
      "name": "Bilbao Abando",
      "latitude": 43.2613,
      "longitude": -2.9243
    },
    {
      "name": "Bilbao Abando",
      "latitude": 43.2613,
      "longitude": -2.9243
    },
    {
      "name": "Bilbao Abando",
      "latitude": 43.2613,
      "longitude": -2.9243
    },
    {
      "name": "Bilbao Abando",
      "latitude": 43.2613,
      "longitude": -2.9243
    },
    {
      "name": "Bilbao Abando",
      "latitude": 43.2613,
      "longitude": -2.9243
    },
    {
      "name": "Bilbao Abando",
      "latitude": 43.2613,
      "longitude": -2.9243
    },
    {
      "name": "Bilbao Abando",
      "latitude": 43.2613,
      "longitude": -2.9243
    },
    {
      "name": "Bilbao Abando",
      "latitude": 43.2613,
      "longitude": -2.9243
    },
    {
      "name": "Santiago de Compostela",
      "latitude": 42.8763,
      "longitude": -8.5452
    },
    {
      "name": "Santiago de Compostela",
      "latitude": 42.8763,
      "longitude": -8.5452
    },
    {
      "name": "Santiago de Compostela",
      "latitude": 42.8763,
      "longitude": -8.5452
    },
    {
      "name": "Santiago de Compostela",
      "latitude": 42.8763,
      "longitude": -8.5452
    },
    {
      "name": "Santiago de Compostela",
      "latitude": 42.8763,
      "longitude": -8.5452
    },
    {
      "name": "Santiago de Compostela",
      "latitude": 42.8763,
      "longitude": -8.5452
    },
    {
      "name": "Santiago de Compostela",
      "latitude": 42.8763,
      "longitude": -8.5452
    },
    {
      "name": "Santiago de Compostela",
      "latitude": 42.8763,
      "longitude": -8.5452
    },
    {
      "name": "Santiago de Compostela",
      "latitude": 42.8763,
      "longitude": -8.5452
    },
    {
      "name": "Granada",
      "latitude": 37.1712,
      "longitude": -3.6125
    },
    {
      "name": "Granada",
      "latitude": 37.1712,
      "longitude": -3.6125
    },
    {
      "name": "Granada",
      "latitude": 37.1712,
      "longitude": -3.6125
    },
    {
      "name": "Granada",
      "latitude": 37.1712,
      "longitude": -3.6125
    },
    {
      "name": "Granada",
      "latitude": 37.1712,
      "longitude": -3.6125
    },
    {
      "name": "Granada",
      "latitude": 37.1712,
      "longitude": -3.6125
    },
    {
      "name": "Granada",
      "latitude": 37.1712,
      "longitude": -3.6125
    },
    {
      "name": "Granada",
      "latitude": 37.1712,
      "longitude": -3.6125
    },
    {
      "name": "Granada",
      "latitude": 37.1712,
      "longitude": -3.6125
    },
    {
      "name": "Z\u00fcrich Hauptbahnhof",
      "latitude": 47.3783,
      "longitude": 8.5403
    },
    {
      "name": "Z\u00fcrich Hauptbahnhof",
      "latitude": 47.3783,
      "longitude": 8.5403
    },
    {
      "name": "Z\u00fcrich Hauptbahnhof",
      "latitude": 47.3783,
      "longitude": 8.5403
    },
    {
      "name": "Z\u00fcrich Hauptbahnhof",
      "latitude": 47.3783,
      "longitude": 8.5403
    },
    {
      "name": "Z\u00fcrich Hauptbahnhof",
      "latitude": 47.3783,
      "longitude": 8.5403
    },
    {
      "name": "Z\u00fcrich Hauptbahnhof",
      "latitude": 47.3783,
      "longitude": 8.5403
    },
    {
      "name": "Z\u00fcrich Hauptbahnhof",
      "latitude": 47.3783,
      "longitude": 8.5403
    },
    {
      "name": "Z\u00fcrich Hauptbahnhof",
      "latitude": 47.3783,
      "longitude": 8.5403
    },
    {
      "name": "Z\u00fcrich Hauptbahnhof",
      "latitude": 47.3783,
      "longitude": 8.5403
    },
    {
      "name": "Bern",
      "latitude": 46.949,
      "longitude": 7.4397
    },
    {
      "name": "Bern",
      "latitude": 46.949,
      "longitude": 7.4397
    },
    {
      "name": "Bern",
      "latitude": 46.949,
      "longitude": 7.4397
    },
    {
      "name": "Bern",
      "latitude": 46.949,
      "longitude": 7.4397
    },
    {
      "name": "Bern",
      "latitude": 46.949,
      "longitude": 7.4397
    },
    {
      "name": "Bern",
      "latitude": 46.949,
      "longitude": 7.4397
    },
    {
      "name": "Bern",
      "latitude": 46.949,
      "longitude": 7.4397
    },
    {
      "name": "Bern",
      "latitude": 46.949,
      "longitude": 7.4397
    },
    {
      "name": "Bern",
      "latitude": 46.949,
      "longitude": 7.4397
    },
    {
      "name": "Basel SBB",
      "latitude": 47.5476,
      "longitude": 7.5905
    },
    {
      "name": "Basel SBB",
      "latitude": 47.5476,
      "longitude": 7.5905
    },
    {
      "name": "Basel SBB",
      "latitude": 47.5476,
      "longitude": 7.5905
    },
    {
      "name": "Basel SBB",
      "latitude": 47.5476,
      "longitude": 7.5905
    },
    {
      "name": "Basel SBB",
      "latitude": 47.5476,
      "longitude": 7.5905
    },
    {
      "name": "Basel SBB",
      "latitude": 47.5476,
      "longitude": 7.5905
    },
    {
      "name": "Basel SBB",
      "latitude": 47.5476,
      "longitude": 7.5905
    },
    {
      "name": "Basel SBB",
      "latitude": 47.5476,
      "longitude": 7.5905
    },
    {
      "name": "Basel SBB",
      "latitude": 47.5476,
      "longitude": 7.5905
    },
    {
      "name": "Gen\u00e8ve Cornavin",
      "latitude": 46.21,
      "longitude": 6.1418
    },
    {
      "name": "Gen\u00e8ve Cornavin",
      "latitude": 46.21,
      "longitude": 6.1418
    },
    {
      "name": "Gen\u00e8ve Cornavin",
      "latitude": 46.21,
      "longitude": 6.1418
    },
    {
      "name": "Gen\u00e8ve Cornavin",
      "latitude": 46.21,
      "longitude": 6.1418
    },
    {
      "name": "Gen\u00e8ve Cornavin",
      "latitude": 46.21,
      "longitude": 6.1418
    },
    {
      "name": "Gen\u00e8ve Cornavin",
      "latitude": 46.21,
      "longitude": 6.1418
    },
    {
      "name": "Gen\u00e8ve Cornavin",
      "latitude": 46.21,
      "longitude": 6.1418
    },
    {
      "name": "Gen\u00e8ve Cornavin",
      "latitude": 46.21,
      "longitude": 6.1418
    },
    {
      "name": "Gen\u00e8ve Cornavin",
      "latitude": 46.21,
      "longitude": 6.1418
    },
    {
      "name": "Lausanne",
      "latitude": 46.5168,
      "longitude": 6.629
    },
    {
      "name": "Lausanne",
      "latitude": 46.5168,
      "longitude": 6.629
    },
    {
      "name": "Lausanne",
      "latitude": 46.5168,
      "longitude": 6.629
    },
    {
      "name": "Lausanne",
      "latitude": 46.5168,
      "longitude": 6.629
    },
    {
      "name": "Lausanne",
      "latitude": 46.5168,
      "longitude": 6.629
    },
    {
      "name": "Lausanne",
      "latitude": 46.5168,
      "longitude": 6.629
    },
    {
      "name": "Lausanne",
      "latitude": 46.5168,
      "longitude": 6.629
    },
    {
      "name": "Lausanne",
      "latitude": 46.5168,
      "longitude": 6.629
    },
    {
      "name": "Lausanne",
      "latitude": 46.5168,
      "longitude": 6.629
    },
    {
      "name": "Luzern",
      "latitude": 47.0504,
      "longitude": 8.3093
    },
    {
      "name": "Luzern",
      "latitude": 47.0504,
      "longitude": 8.3093
    },
    {
      "name": "Luzern",
      "latitude": 47.0504,
      "longitude": 8.3093
    },
    {
      "name": "Luzern",
      "latitude": 47.0504,
      "longitude": 8.3093
    },
    {
      "name": "Luzern",
      "latitude": 47.0504,
      "longitude": 8.3093
    },
    {
      "name": "Luzern",
      "latitude": 47.0504,
      "longitude": 8.3093
    },
    {
      "name": "Luzern",
      "latitude": 47.0504,
      "longitude": 8.3093
    },
    {
      "name": "Luzern",
      "latitude": 47.0504,
      "longitude": 8.3093
    },
    {
      "name": "Luzern",
      "latitude": 47.0504,
      "longitude": 8.3093
    },
    {
      "name": "Winterthur",
      "latitude": 47.5007,
      "longitude": 8.7242
    },
    {
      "name": "Winterthur",
      "latitude": 47.5007,
      "longitude": 8.7242
    },
    {
      "name": "Winterthur",
      "latitude": 47.5007,
      "longitude": 8.7242
    },
    {
      "name": "Winterthur",
      "latitude": 47.5007,
      "longitude": 8.7242
    },
    {
      "name": "Winterthur",
      "latitude": 47.5007,
      "longitude": 8.7242
    },
    {
      "name": "Winterthur",
      "latitude": 47.5007,
      "longitude": 8.7242
    },
    {
      "name": "Winterthur",
      "latitude": 47.5007,
      "longitude": 8.7242
    },
    {
      "name": "Winterthur",
      "latitude": 47.5007,
      "longitude": 8.7242
    },
    {
      "name": "Winterthur",
      "latitude": 47.5007,
      "longitude": 8.7242
    },
    {
      "name": "Lugano",
      "latitude": 46.005,
      "longitude": 8.9471
    },
    {
      "name": "Lugano",
      "latitude": 46.005,
      "longitude": 8.9471
    },
    {
      "name": "Lugano",
      "latitude": 46.005,
      "longitude": 8.9471
    },
    {
      "name": "Lugano",
      "latitude": 46.005,
      "longitude": 8.9471
    },
    {
      "name": "Lugano",
      "latitude": 46.005,
      "longitude": 8.9471
    },
    {
      "name": "Lugano",
      "latitude": 46.005,
      "longitude": 8.9471
    },
    {
      "name": "Lugano",
      "latitude": 46.005,
      "longitude": 8.9471
    },
    {
      "name": "Lugano",
      "latitude": 46.005,
      "longitude": 8.9471
    },
    {
      "name": "Lugano",
      "latitude": 46.005,
      "longitude": 8.9471
    },
    {
      "name": "St. Gallen",
      "latitude": 47.4237,
      "longitude": 9.3718
    },
    {
      "name": "St. Gallen",
      "latitude": 47.4237,
      "longitude": 9.3718
    },
    {
      "name": "St. Gallen",
      "latitude": 47.4237,
      "longitude": 9.3718
    },
    {
      "name": "St. Gallen",
      "latitude": 47.4237,
      "longitude": 9.3718
    },
    {
      "name": "St. Gallen",
      "latitude": 47.4237,
      "longitude": 9.3718
    },
    {
      "name": "St. Gallen",
      "latitude": 47.4237,
      "longitude": 9.3718
    },
    {
      "name": "St. Gallen",
      "latitude": 47.4237,
      "longitude": 9.3718
    },
    {
      "name": "St. Gallen",
      "latitude": 47.4237,
      "longitude": 9.3718
    },
    {
      "name": "St. Gallen",
      "latitude": 47.4237,
      "longitude": 9.3718
    },
    {
      "name": "Interlaken",
      "latitude": 46.6863,
      "longitude": 7.8632
    },
    {
      "name": "Interlaken",
      "latitude": 46.6863,
      "longitude": 7.8632
    },
    {
      "name": "Interlaken",
      "latitude": 46.6863,
      "longitude": 7.8632
    },
    {
      "name": "Interlaken",
      "latitude": 46.6863,
      "longitude": 7.8632
    },
    {
      "name": "Interlaken",
      "latitude": 46.6863,
      "longitude": 7.8632
    },
    {
      "name": "Interlaken",
      "latitude": 46.6863,
      "longitude": 7.8632
    },
    {
      "name": "Interlaken",
      "latitude": 46.6863,
      "longitude": 7.8632
    },
    {
      "name": "Interlaken",
      "latitude": 46.6863,
      "longitude": 7.8632
    },
    {
      "name": "Interlaken",
      "latitude": 46.6863,
      "longitude": 7.8632
    },
    {
      "name": "Wien Hauptbahnhof",
      "latitude": 48.1855,
      "longitude": 16.3798
    },
    {
      "name": "Wien Hauptbahnhof",
      "latitude": 48.1855,
      "longitude": 16.3798
    },
    {
      "name": "Wien Hauptbahnhof",
      "latitude": 48.1855,
      "longitude": 16.3798
    },
    {
      "name": "Wien Hauptbahnhof",
      "latitude": 48.1855,
      "longitude": 16.3798
    },
    {
      "name": "Wien Hauptbahnhof",
      "latitude": 48.1855,
      "longitude": 16.3798
    },
    {
      "name": "Wien Hauptbahnhof",
      "latitude": 48.1855,
      "longitude": 16.3798
    },
    {
      "name": "Wien Hauptbahnhof",
      "latitude": 48.1855,
      "longitude": 16.3798
    },
    {
      "name": "Salzburg Hauptbahnhof",
      "latitude": 47.8126,
      "longitude": 13.0465
    },
    {
      "name": "Salzburg Hauptbahnhof",
      "latitude": 47.8126,
      "longitude": 13.0465
    },
    {
      "name": "Salzburg Hauptbahnhof",
      "latitude": 47.8126,
      "longitude": 13.0465
    },
    {
      "name": "Salzburg Hauptbahnhof",
      "latitude": 47.8126,
      "longitude": 13.0465
    },
    {
      "name": "Salzburg Hauptbahnhof",
      "latitude": 47.8126,
      "longitude": 13.0465
    },
    {
      "name": "Salzburg Hauptbahnhof",
      "latitude": 47.8126,
      "longitude": 13.0465
    },
    {
      "name": "Salzburg Hauptbahnhof",
      "latitude": 47.8126,
      "longitude": 13.0465
    },
    {
      "name": "Graz Hauptbahnhof",
      "latitude": 47.0728,
      "longitude": 15.416
    },
    {
      "name": "Graz Hauptbahnhof",
      "latitude": 47.0728,
      "longitude": 15.416
    },
    {
      "name": "Graz Hauptbahnhof",
      "latitude": 47.0728,
      "longitude": 15.416
    },
    {
      "name": "Graz Hauptbahnhof",
      "latitude": 47.0728,
      "longitude": 15.416
    },
    {
      "name": "Graz Hauptbahnhof",
      "latitude": 47.0728,
      "longitude": 15.416
    },
    {
      "name": "Graz Hauptbahnhof",
      "latitude": 47.0728,
      "longitude": 15.416
    },
    {
      "name": "Graz Hauptbahnhof",
      "latitude": 47.0728,
      "longitude": 15.416
    },
    {
      "name": "Innsbruck Hauptbahnhof",
      "latitude": 47.2632,
      "longitude": 11.4011
    },
    {
      "name": "Innsbruck Hauptbahnhof",
      "latitude": 47.2632,
      "longitude": 11.4011
    },
    {
      "name": "Innsbruck Hauptbahnhof",
      "latitude": 47.2632,
      "longitude": 11.4011
    },
    {
      "name": "Innsbruck Hauptbahnhof",
      "latitude": 47.2632,
      "longitude": 11.4011
    },
    {
      "name": "Innsbruck Hauptbahnhof",
      "latitude": 47.2632,
      "longitude": 11.4011
    },
    {
      "name": "Innsbruck Hauptbahnhof",
      "latitude": 47.2632,
      "longitude": 11.4011
    },
    {
      "name": "Innsbruck Hauptbahnhof",
      "latitude": 47.2632,
      "longitude": 11.4011
    },
    {
      "name": "Linz Hauptbahnhof",
      "latitude": 48.2914,
      "longitude": 14.2919
    },
    {
      "name": "Linz Hauptbahnhof",
      "latitude": 48.2914,
      "longitude": 14.2919
    },
    {
      "name": "Linz Hauptbahnhof",
      "latitude": 48.2914,
      "longitude": 14.2919
    },
    {
      "name": "Linz Hauptbahnhof",
      "latitude": 48.2914,
      "longitude": 14.2919
    },
    {
      "name": "Linz Hauptbahnhof",
      "latitude": 48.2914,
      "longitude": 14.2919
    },
    {
      "name": "Linz Hauptbahnhof",
      "latitude": 48.2914,
      "longitude": 14.2919
    },
    {
      "name": "Linz Hauptbahnhof",
      "latitude": 48.2914,
      "longitude": 14.2919
    },
    {
      "name": "Klagenfurt Hauptbahnhof",
      "latitude": 46.6168,
      "longitude": 14.3104
    },
    {
      "name": "Klagenfurt Hauptbahnhof",
      "latitude": 46.6168,
      "longitude": 14.3104
    },
    {
      "name": "Klagenfurt Hauptbahnhof",
      "latitude": 46.6168,
      "longitude": 14.3104
    },
    {
      "name": "Klagenfurt Hauptbahnhof",
      "latitude": 46.6168,
      "longitude": 14.3104
    },
    {
      "name": "Klagenfurt Hauptbahnhof",
      "latitude": 46.6168,
      "longitude": 14.3104
    },
    {
      "name": "Klagenfurt Hauptbahnhof",
      "latitude": 46.6168,
      "longitude": 14.3104
    },
    {
      "name": "Klagenfurt Hauptbahnhof",
      "latitude": 46.6168,
      "longitude": 14.3104
    },
    {
      "name": "Bregenz",
      "latitude": 47.5031,
      "longitude": 9.7471
    },
    {
      "name": "Bregenz",
      "latitude": 47.5031,
      "longitude": 9.7471
    },
    {
      "name": "Bregenz",
      "latitude": 47.5031,
      "longitude": 9.7471
    },
    {
      "name": "Bregenz",
      "latitude": 47.5031,
      "longitude": 9.7471
    },
    {
      "name": "Bregenz",
      "latitude": 47.5031,
      "longitude": 9.7471
    },
    {
      "name": "Bregenz",
      "latitude": 47.5031,
      "longitude": 9.7471
    },
    {
      "name": "Bregenz",
      "latitude": 47.5031,
      "longitude": 9.7471
    },
    {
      "name": "St. P\u00f6lten Hauptbahnhof",
      "latitude": 48.2048,
      "longitude": 15.623
    },
    {
      "name": "St. P\u00f6lten Hauptbahnhof",
      "latitude": 48.2048,
      "longitude": 15.623
    },
    {
      "name": "St. P\u00f6lten Hauptbahnhof",
      "latitude": 48.2048,
      "longitude": 15.623
    },
    {
      "name": "St. P\u00f6lten Hauptbahnhof",
      "latitude": 48.2048,
      "longitude": 15.623
    },
    {
      "name": "St. P\u00f6lten Hauptbahnhof",
      "latitude": 48.2048,
      "longitude": 15.623
    },
    {
      "name": "St. P\u00f6lten Hauptbahnhof",
      "latitude": 48.2048,
      "longitude": 15.623
    },
    {
      "name": "St. P\u00f6lten Hauptbahnhof",
      "latitude": 48.2048,
      "longitude": 15.623
    },
    {
      "name": "Amsterdam Centraal",
      "latitude": 52.3789,
      "longitude": 4.9003
    },
    {
      "name": "Amsterdam Centraal",
      "latitude": 52.3789,
      "longitude": 4.9003
    },
    {
      "name": "Amsterdam Centraal",
      "latitude": 52.3789,
      "longitude": 4.9003
    },
    {
      "name": "Amsterdam Centraal",
      "latitude": 52.3789,
      "longitude": 4.9003
    },
    {
      "name": "Amsterdam Centraal",
      "latitude": 52.3789,
      "longitude": 4.9003
    },
    {
      "name": "Amsterdam Centraal",
      "latitude": 52.3789,
      "longitude": 4.9003
    },
    {
      "name": "Amsterdam Centraal",
      "latitude": 52.3789,
      "longitude": 4.9003
    },
    {
      "name": "Amsterdam Centraal",
      "latitude": 52.3789,
      "longitude": 4.9003
    },
    {
      "name": "Amsterdam Centraal",
      "latitude": 52.3789,
      "longitude": 4.9003
    },
    {
      "name": "Utrecht Centraal",
      "latitude": 52.0894,
      "longitude": 5.11
    },
    {
      "name": "Utrecht Centraal",
      "latitude": 52.0894,
      "longitude": 5.11
    },
    {
      "name": "Utrecht Centraal",
      "latitude": 52.0894,
      "longitude": 5.11
    },
    {
      "name": "Utrecht Centraal",
      "latitude": 52.0894,
      "longitude": 5.11
    },
    {
      "name": "Utrecht Centraal",
      "latitude": 52.0894,
      "longitude": 5.11
    },
    {
      "name": "Utrecht Centraal",
      "latitude": 52.0894,
      "longitude": 5.11
    },
    {
      "name": "Utrecht Centraal",
      "latitude": 52.0894,
      "longitude": 5.11
    },
    {
      "name": "Utrecht Centraal",
      "latitude": 52.0894,
      "longitude": 5.11
    },
    {
      "name": "Utrecht Centraal",
      "latitude": 52.0894,
      "longitude": 5.11
    },
    {
      "name": "Rotterdam Centraal",
      "latitude": 51.9245,
      "longitude": 4.4699
    },
    {
      "name": "Rotterdam Centraal",
      "latitude": 51.9245,
      "longitude": 4.4699
    },
    {
      "name": "Rotterdam Centraal",
      "latitude": 51.9245,
      "longitude": 4.4699
    },
    {
      "name": "Rotterdam Centraal",
      "latitude": 51.9245,
      "longitude": 4.4699
    },
    {
      "name": "Rotterdam Centraal",
      "latitude": 51.9245,
      "longitude": 4.4699
    },
    {
      "name": "Rotterdam Centraal",
      "latitude": 51.9245,
      "longitude": 4.4699
    },
    {
      "name": "Rotterdam Centraal",
      "latitude": 51.9245,
      "longitude": 4.4699
    },
    {
      "name": "Rotterdam Centraal",
      "latitude": 51.9245,
      "longitude": 4.4699
    },
    {
      "name": "Rotterdam Centraal",
      "latitude": 51.9245,
      "longitude": 4.4699
    },
    {
      "name": "Den Haag Centraal",
      "latitude": 52.0809,
      "longitude": 4.3241
    },
    {
      "name": "Den Haag Centraal",
      "latitude": 52.0809,
      "longitude": 4.3241
    },
    {
      "name": "Den Haag Centraal",
      "latitude": 52.0809,
      "longitude": 4.3241
    },
    {
      "name": "Den Haag Centraal",
      "latitude": 52.0809,
      "longitude": 4.3241
    },
    {
      "name": "Den Haag Centraal",
      "latitude": 52.0809,
      "longitude": 4.3241
    },
    {
      "name": "Den Haag Centraal",
      "latitude": 52.0809,
      "longitude": 4.3241
    },
    {
      "name": "Den Haag Centraal",
      "latitude": 52.0809,
      "longitude": 4.3241
    },
    {
      "name": "Den Haag Centraal",
      "latitude": 52.0809,
      "longitude": 4.3241
    },
    {
      "name": "Den Haag Centraal",
      "latitude": 52.0809,
      "longitude": 4.3241
    },
    {
      "name": "Eindhoven Centraal",
      "latitude": 51.4433,
      "longitude": 5.4812
    },
    {
      "name": "Eindhoven Centraal",
      "latitude": 51.4433,
      "longitude": 5.4812
    },
    {
      "name": "Eindhoven Centraal",
      "latitude": 51.4433,
      "longitude": 5.4812
    },
    {
      "name": "Eindhoven Centraal",
      "latitude": 51.4433,
      "longitude": 5.4812
    },
    {
      "name": "Eindhoven Centraal",
      "latitude": 51.4433,
      "longitude": 5.4812
    },
    {
      "name": "Eindhoven Centraal",
      "latitude": 51.4433,
      "longitude": 5.4812
    },
    {
      "name": "Eindhoven Centraal",
      "latitude": 51.4433,
      "longitude": 5.4812
    },
    {
      "name": "Eindhoven Centraal",
      "latitude": 51.4433,
      "longitude": 5.4812
    },
    {
      "name": "Eindhoven Centraal",
      "latitude": 51.4433,
      "longitude": 5.4812
    },
    {
      "name": "Groningen",
      "latitude": 53.2114,
      "longitude": 6.5654
    },
    {
      "name": "Groningen",
      "latitude": 53.2114,
      "longitude": 6.5654
    },
    {
      "name": "Groningen",
      "latitude": 53.2114,
      "longitude": 6.5654
    },
    {
      "name": "Groningen",
      "latitude": 53.2114,
      "longitude": 6.5654
    },
    {
      "name": "Groningen",
      "latitude": 53.2114,
      "longitude": 6.5654
    },
    {
      "name": "Groningen",
      "latitude": 53.2114,
      "longitude": 6.5654
    },
    {
      "name": "Groningen",
      "latitude": 53.2114,
      "longitude": 6.5654
    },
    {
      "name": "Groningen",
      "latitude": 53.2114,
      "longitude": 6.5654
    },
    {
      "name": "Groningen",
      "latitude": 53.2114,
      "longitude": 6.5654
    },
    {
      "name": "Maastricht",
      "latitude": 50.8493,
      "longitude": 5.7056
    },
    {
      "name": "Maastricht",
      "latitude": 50.8493,
      "longitude": 5.7056
    },
    {
      "name": "Maastricht",
      "latitude": 50.8493,
      "longitude": 5.7056
    },
    {
      "name": "Maastricht",
      "latitude": 50.8493,
      "longitude": 5.7056
    },
    {
      "name": "Maastricht",
      "latitude": 50.8493,
      "longitude": 5.7056
    },
    {
      "name": "Maastricht",
      "latitude": 50.8493,
      "longitude": 5.7056
    },
    {
      "name": "Maastricht",
      "latitude": 50.8493,
      "longitude": 5.7056
    },
    {
      "name": "Maastricht",
      "latitude": 50.8493,
      "longitude": 5.7056
    },
    {
      "name": "Maastricht",
      "latitude": 50.8493,
      "longitude": 5.7056
    },
    {
      "name": "Arnhem Centraal",
      "latitude": 51.985,
      "longitude": 5.901
    },
    {
      "name": "Arnhem Centraal",
      "latitude": 51.985,
      "longitude": 5.901
    },
    {
      "name": "Arnhem Centraal",
      "latitude": 51.985,
      "longitude": 5.901
    },
    {
      "name": "Arnhem Centraal",
      "latitude": 51.985,
      "longitude": 5.901
    },
    {
      "name": "Arnhem Centraal",
      "latitude": 51.985,
      "longitude": 5.901
    },
    {
      "name": "Arnhem Centraal",
      "latitude": 51.985,
      "longitude": 5.901
    },
    {
      "name": "Arnhem Centraal",
      "latitude": 51.985,
      "longitude": 5.901
    },
    {
      "name": "Arnhem Centraal",
      "latitude": 51.985,
      "longitude": 5.901
    },
    {
      "name": "Arnhem Centraal",
      "latitude": 51.985,
      "longitude": 5.901
    },
    {
      "name": "Leeuwarden",
      "latitude": 53.1962,
      "longitude": 5.7867
    },
    {
      "name": "Leeuwarden",
      "latitude": 53.1962,
      "longitude": 5.7867
    },
    {
      "name": "Leeuwarden",
      "latitude": 53.1962,
      "longitude": 5.7867
    },
    {
      "name": "Leeuwarden",
      "latitude": 53.1962,
      "longitude": 5.7867
    },
    {
      "name": "Leeuwarden",
      "latitude": 53.1962,
      "longitude": 5.7867
    },
    {
      "name": "Leeuwarden",
      "latitude": 53.1962,
      "longitude": 5.7867
    },
    {
      "name": "Leeuwarden",
      "latitude": 53.1962,
      "longitude": 5.7867
    },
    {
      "name": "Leeuwarden",
      "latitude": 53.1962,
      "longitude": 5.7867
    },
    {
      "name": "Leeuwarden",
      "latitude": 53.1962,
      "longitude": 5.7867
    },
    {
      "name": "Zwolle",
      "latitude": 52.5047,
      "longitude": 6.0914
    },
    {
      "name": "Zwolle",
      "latitude": 52.5047,
      "longitude": 6.0914
    },
    {
      "name": "Zwolle",
      "latitude": 52.5047,
      "longitude": 6.0914
    },
    {
      "name": "Zwolle",
      "latitude": 52.5047,
      "longitude": 6.0914
    },
    {
      "name": "Zwolle",
      "latitude": 52.5047,
      "longitude": 6.0914
    },
    {
      "name": "Zwolle",
      "latitude": 52.5047,
      "longitude": 6.0914
    },
    {
      "name": "Zwolle",
      "latitude": 52.5047,
      "longitude": 6.0914
    },
    {
      "name": "Zwolle",
      "latitude": 52.5047,
      "longitude": 6.0914
    },
    {
      "name": "Zwolle",
      "latitude": 52.5047,
      "longitude": 6.0914
    },
    {
      "name": "London King's Cross",
      "latitude": 51.532,
      "longitude": -0.124
    },
    {
      "name": "London King's Cross",
      "latitude": 51.532,
      "longitude": -0.124
    },
    {
      "name": "London King's Cross",
      "latitude": 51.532,
      "longitude": -0.124
    },
    {
      "name": "London King's Cross",
      "latitude": 51.532,
      "longitude": -0.124
    },
    {
      "name": "London King's Cross",
      "latitude": 51.532,
      "longitude": -0.124
    },
    {
      "name": "London King's Cross",
      "latitude": 51.532,
      "longitude": -0.124
    },
    {
      "name": "London King's Cross",
      "latitude": 51.532,
      "longitude": -0.124
    },
    {
      "name": "London King's Cross",
      "latitude": 51.532,
      "longitude": -0.124
    },
    {
      "name": "London King's Cross",
      "latitude": 51.532,
      "longitude": -0.124
    },
    {
      "name": "London King's Cross",
      "latitude": 51.532,
      "longitude": -0.124
    },
    {
      "name": "London King's Cross",
      "latitude": 51.532,
      "longitude": -0.124
    },
    {
      "name": "London St Pancras",
      "latitude": 51.5322,
      "longitude": -0.1271
    },
    {
      "name": "London St Pancras",
      "latitude": 51.5322,
      "longitude": -0.1271
    },
    {
      "name": "London St Pancras",
      "latitude": 51.5322,
      "longitude": -0.1271
    },
    {
      "name": "London St Pancras",
      "latitude": 51.5322,
      "longitude": -0.1271
    },
    {
      "name": "London St Pancras",
      "latitude": 51.5322,
      "longitude": -0.1271
    },
    {
      "name": "London St Pancras",
      "latitude": 51.5322,
      "longitude": -0.1271
    },
    {
      "name": "London St Pancras",
      "latitude": 51.5322,
      "longitude": -0.1271
    },
    {
      "name": "London St Pancras",
      "latitude": 51.5322,
      "longitude": -0.1271
    },
    {
      "name": "London St Pancras",
      "latitude": 51.5322,
      "longitude": -0.1271
    },
    {
      "name": "London St Pancras",
      "latitude": 51.5322,
      "longitude": -0.1271
    },
    {
      "name": "London St Pancras",
      "latitude": 51.5322,
      "longitude": -0.1271
    },
    {
      "name": "London Euston",
      "latitude": 51.5284,
      "longitude": -0.1331
    },
    {
      "name": "London Euston",
      "latitude": 51.5284,
      "longitude": -0.1331
    },
    {
      "name": "London Euston",
      "latitude": 51.5284,
      "longitude": -0.1331
    },
    {
      "name": "London Euston",
      "latitude": 51.5284,
      "longitude": -0.1331
    },
    {
      "name": "London Euston",
      "latitude": 51.5284,
      "longitude": -0.1331
    },
    {
      "name": "London Euston",
      "latitude": 51.5284,
      "longitude": -0.1331
    },
    {
      "name": "London Euston",
      "latitude": 51.5284,
      "longitude": -0.1331
    },
    {
      "name": "London Euston",
      "latitude": 51.5284,
      "longitude": -0.1331
    },
    {
      "name": "London Euston",
      "latitude": 51.5284,
      "longitude": -0.1331
    },
    {
      "name": "London Euston",
      "latitude": 51.5284,
      "longitude": -0.1331
    },
    {
      "name": "London Euston",
      "latitude": 51.5284,
      "longitude": -0.1331
    },
    {
      "name": "London Paddington",
      "latitude": 51.5154,
      "longitude": -0.1755
    },
    {
      "name": "London Paddington",
      "latitude": 51.5154,
      "longitude": -0.1755
    },
    {
      "name": "London Paddington",
      "latitude": 51.5154,
      "longitude": -0.1755
    },
    {
      "name": "London Paddington",
      "latitude": 51.5154,
      "longitude": -0.1755
    },
    {
      "name": "London Paddington",
      "latitude": 51.5154,
      "longitude": -0.1755
    },
    {
      "name": "London Paddington",
      "latitude": 51.5154,
      "longitude": -0.1755
    },
    {
      "name": "London Paddington",
      "latitude": 51.5154,
      "longitude": -0.1755
    },
    {
      "name": "London Paddington",
      "latitude": 51.5154,
      "longitude": -0.1755
    },
    {
      "name": "London Paddington",
      "latitude": 51.5154,
      "longitude": -0.1755
    },
    {
      "name": "London Paddington",
      "latitude": 51.5154,
      "longitude": -0.1755
    },
    {
      "name": "London Paddington",
      "latitude": 51.5154,
      "longitude": -0.1755
    },
    {
      "name": "Manchester Piccadilly",
      "latitude": 53.4774,
      "longitude": -2.2309
    },
    {
      "name": "Manchester Piccadilly",
      "latitude": 53.4774,
      "longitude": -2.2309
    },
    {
      "name": "Manchester Piccadilly",
      "latitude": 53.4774,
      "longitude": -2.2309
    },
    {
      "name": "Manchester Piccadilly",
      "latitude": 53.4774,
      "longitude": -2.2309
    },
    {
      "name": "Manchester Piccadilly",
      "latitude": 53.4774,
      "longitude": -2.2309
    },
    {
      "name": "Manchester Piccadilly",
      "latitude": 53.4774,
      "longitude": -2.2309
    },
    {
      "name": "Manchester Piccadilly",
      "latitude": 53.4774,
      "longitude": -2.2309
    },
    {
      "name": "Manchester Piccadilly",
      "latitude": 53.4774,
      "longitude": -2.2309
    },
    {
      "name": "Manchester Piccadilly",
      "latitude": 53.4774,
      "longitude": -2.2309
    },
    {
      "name": "Manchester Piccadilly",
      "latitude": 53.4774,
      "longitude": -2.2309
    },
    {
      "name": "Manchester Piccadilly",
      "latitude": 53.4774,
      "longitude": -2.2309
    },
    {
      "name": "Birmingham New Street",
      "latitude": 52.4778,
      "longitude": -1.8991
    },
    {
      "name": "Birmingham New Street",
      "latitude": 52.4778,
      "longitude": -1.8991
    },
    {
      "name": "Birmingham New Street",
      "latitude": 52.4778,
      "longitude": -1.8991
    },
    {
      "name": "Birmingham New Street",
      "latitude": 52.4778,
      "longitude": -1.8991
    },
    {
      "name": "Birmingham New Street",
      "latitude": 52.4778,
      "longitude": -1.8991
    },
    {
      "name": "Birmingham New Street",
      "latitude": 52.4778,
      "longitude": -1.8991
    },
    {
      "name": "Birmingham New Street",
      "latitude": 52.4778,
      "longitude": -1.8991
    },
    {
      "name": "Birmingham New Street",
      "latitude": 52.4778,
      "longitude": -1.8991
    },
    {
      "name": "Birmingham New Street",
      "latitude": 52.4778,
      "longitude": -1.8991
    },
    {
      "name": "Birmingham New Street",
      "latitude": 52.4778,
      "longitude": -1.8991
    },
    {
      "name": "Birmingham New Street",
      "latitude": 52.4778,
      "longitude": -1.8991
    },
    {
      "name": "Liverpool Lime Street",
      "latitude": 53.4075,
      "longitude": -2.9778
    },
    {
      "name": "Liverpool Lime Street",
      "latitude": 53.4075,
      "longitude": -2.9778
    },
    {
      "name": "Liverpool Lime Street",
      "latitude": 53.4075,
      "longitude": -2.9778
    },
    {
      "name": "Liverpool Lime Street",
      "latitude": 53.4075,
      "longitude": -2.9778
    },
    {
      "name": "Liverpool Lime Street",
      "latitude": 53.4075,
      "longitude": -2.9778
    },
    {
      "name": "Liverpool Lime Street",
      "latitude": 53.4075,
      "longitude": -2.9778
    },
    {
      "name": "Liverpool Lime Street",
      "latitude": 53.4075,
      "longitude": -2.9778
    },
    {
      "name": "Liverpool Lime Street",
      "latitude": 53.4075,
      "longitude": -2.9778
    },
    {
      "name": "Liverpool Lime Street",
      "latitude": 53.4075,
      "longitude": -2.9778
    },
    {
      "name": "Liverpool Lime Street",
      "latitude": 53.4075,
      "longitude": -2.9778
    },
    {
      "name": "Liverpool Lime Street",
      "latitude": 53.4075,
      "longitude": -2.9778
    },
    {
      "name": "Leeds",
      "latitude": 53.7958,
      "longitude": -1.5484
    },
    {
      "name": "Leeds",
      "latitude": 53.7958,
      "longitude": -1.5484
    },
    {
      "name": "Leeds",
      "latitude": 53.7958,
      "longitude": -1.5484
    },
    {
      "name": "Leeds",
      "latitude": 53.7958,
      "longitude": -1.5484
    },
    {
      "name": "Leeds",
      "latitude": 53.7958,
      "longitude": -1.5484
    },
    {
      "name": "Leeds",
      "latitude": 53.7958,
      "longitude": -1.5484
    },
    {
      "name": "Leeds",
      "latitude": 53.7958,
      "longitude": -1.5484
    },
    {
      "name": "Leeds",
      "latitude": 53.7958,
      "longitude": -1.5484
    },
    {
      "name": "Leeds",
      "latitude": 53.7958,
      "longitude": -1.5484
    },
    {
      "name": "Leeds",
      "latitude": 53.7958,
      "longitude": -1.5484
    },
    {
      "name": "Leeds",
      "latitude": 53.7958,
      "longitude": -1.5484
    },
    {
      "name": "Edinburgh Waverley",
      "latitude": 55.9519,
      "longitude": -3.1891
    },
    {
      "name": "Edinburgh Waverley",
      "latitude": 55.9519,
      "longitude": -3.1891
    },
    {
      "name": "Edinburgh Waverley",
      "latitude": 55.9519,
      "longitude": -3.1891
    },
    {
      "name": "Edinburgh Waverley",
      "latitude": 55.9519,
      "longitude": -3.1891
    },
    {
      "name": "Edinburgh Waverley",
      "latitude": 55.9519,
      "longitude": -3.1891
    },
    {
      "name": "Edinburgh Waverley",
      "latitude": 55.9519,
      "longitude": -3.1891
    },
    {
      "name": "Edinburgh Waverley",
      "latitude": 55.9519,
      "longitude": -3.1891
    },
    {
      "name": "Edinburgh Waverley",
      "latitude": 55.9519,
      "longitude": -3.1891
    },
    {
      "name": "Edinburgh Waverley",
      "latitude": 55.9519,
      "longitude": -3.1891
    },
    {
      "name": "Edinburgh Waverley",
      "latitude": 55.9519,
      "longitude": -3.1891
    },
    {
      "name": "Edinburgh Waverley",
      "latitude": 55.9519,
      "longitude": -3.1891
    },
    {
      "name": "Glasgow Central",
      "latitude": 55.859,
      "longitude": -4.2585
    },
    {
      "name": "Glasgow Central",
      "latitude": 55.859,
      "longitude": -4.2585
    },
    {
      "name": "Glasgow Central",
      "latitude": 55.859,
      "longitude": -4.2585
    },
    {
      "name": "Glasgow Central",
      "latitude": 55.859,
      "longitude": -4.2585
    },
    {
      "name": "Glasgow Central",
      "latitude": 55.859,
      "longitude": -4.2585
    },
    {
      "name": "Glasgow Central",
      "latitude": 55.859,
      "longitude": -4.2585
    },
    {
      "name": "Glasgow Central",
      "latitude": 55.859,
      "longitude": -4.2585
    },
    {
      "name": "Glasgow Central",
      "latitude": 55.859,
      "longitude": -4.2585
    },
    {
      "name": "Glasgow Central",
      "latitude": 55.859,
      "longitude": -4.2585
    },
    {
      "name": "Glasgow Central",
      "latitude": 55.859,
      "longitude": -4.2585
    },
    {
      "name": "Glasgow Central",
      "latitude": 55.859,
      "longitude": -4.2585
    },
    {
      "name": "Cardiff Central",
      "latitude": 51.476,
      "longitude": -3.179
    },
    {
      "name": "Cardiff Central",
      "latitude": 51.476,
      "longitude": -3.179
    },
    {
      "name": "Cardiff Central",
      "latitude": 51.476,
      "longitude": -3.179
    },
    {
      "name": "Cardiff Central",
      "latitude": 51.476,
      "longitude": -3.179
    },
    {
      "name": "Cardiff Central",
      "latitude": 51.476,
      "longitude": -3.179
    },
    {
      "name": "Cardiff Central",
      "latitude": 51.476,
      "longitude": -3.179
    },
    {
      "name": "Cardiff Central",
      "latitude": 51.476,
      "longitude": -3.179
    },
    {
      "name": "Cardiff Central",
      "latitude": 51.476,
      "longitude": -3.179
    },
    {
      "name": "Cardiff Central",
      "latitude": 51.476,
      "longitude": -3.179
    },
    {
      "name": "Cardiff Central",
      "latitude": 51.476,
      "longitude": -3.179
    },
    {
      "name": "Cardiff Central",
      "latitude": 51.476,
      "longitude": -3.179
    },
    {
      "name": "Bristol Temple Meads",
      "latitude": 51.4496,
      "longitude": -2.5811
    },
    {
      "name": "Bristol Temple Meads",
      "latitude": 51.4496,
      "longitude": -2.5811
    },
    {
      "name": "Bristol Temple Meads",
      "latitude": 51.4496,
      "longitude": -2.5811
    },
    {
      "name": "Bristol Temple Meads",
      "latitude": 51.4496,
      "longitude": -2.5811
    },
    {
      "name": "Bristol Temple Meads",
      "latitude": 51.4496,
      "longitude": -2.5811
    },
    {
      "name": "Bristol Temple Meads",
      "latitude": 51.4496,
      "longitude": -2.5811
    },
    {
      "name": "Bristol Temple Meads",
      "latitude": 51.4496,
      "longitude": -2.5811
    },
    {
      "name": "Bristol Temple Meads",
      "latitude": 51.4496,
      "longitude": -2.5811
    },
    {
      "name": "Bristol Temple Meads",
      "latitude": 51.4496,
      "longitude": -2.5811
    },
    {
      "name": "Bristol Temple Meads",
      "latitude": 51.4496,
      "longitude": -2.5811
    },
    {
      "name": "Bristol Temple Meads",
      "latitude": 51.4496,
      "longitude": -2.5811
    },
    {
      "name": "Paris Gare du Nord",
      "latitude": 48.8809,
      "longitude": 2.3553
    },
    {
      "name": "Paris Gare du Nord",
      "latitude": 48.8809,
      "longitude": 2.3553
    },
    {
      "name": "Paris Gare du Nord",
      "latitude": 48.8809,
      "longitude": 2.3553
    },
    {
      "name": "Paris Gare du Nord",
      "latitude": 48.8809,
      "longitude": 2.3553
    },
    {
      "name": "Paris Gare du Nord",
      "latitude": 48.8809,
      "longitude": 2.3553
    },
    {
      "name": "Paris Gare du Nord",
      "latitude": 48.8809,
      "longitude": 2.3553
    },
    {
      "name": "Brussels Midi",
      "latitude": 50.8357,
      "longitude": 4.3356
    },
    {
      "name": "Brussels Midi",
      "latitude": 50.8357,
      "longitude": 4.3356
    },
    {
      "name": "Brussels Midi",
      "latitude": 50.8357,
      "longitude": 4.3356
    },
    {
      "name": "Brussels Midi",
      "latitude": 50.8357,
      "longitude": 4.3356
    },
    {
      "name": "Brussels Midi",
      "latitude": 50.8357,
      "longitude": 4.3356
    },
    {
      "name": "Brussels Midi",
      "latitude": 50.8357,
      "longitude": 4.3356
    },
    {
      "name": "Brussels Midi",
      "latitude": 50.8357,
      "longitude": 4.3356
    },
    {
      "name": "Amsterdam Centraal",
      "latitude": 52.3789,
      "longitude": 4.9003
    },
    {
      "name": "Amsterdam Centraal",
      "latitude": 52.3789,
      "longitude": 4.9003
    },
    {
      "name": "Amsterdam Centraal",
      "latitude": 52.3789,
      "longitude": 4.9003
    },
    {
      "name": "Amsterdam Centraal",
      "latitude": 52.3789,
      "longitude": 4.9003
    },
    {
      "name": "Amsterdam Centraal",
      "latitude": 52.3789,
      "longitude": 4.9003
    },
    {
      "name": "Amsterdam Centraal",
      "latitude": 52.3789,
      "longitude": 4.9003
    },
    {
      "name": "London St Pancras",
      "latitude": 51.5322,
      "longitude": -0.1271
    },
    {
      "name": "London St Pancras",
      "latitude": 51.5322,
      "longitude": -0.1271
    },
    {
      "name": "London St Pancras",
      "latitude": 51.5322,
      "longitude": -0.1271
    },
    {
      "name": "London St Pancras",
      "latitude": 51.5322,
      "longitude": -0.1271
    },
    {
      "name": "London St Pancras",
      "latitude": 51.5322,
      "longitude": -0.1271
    },
    {
      "name": "London St Pancras",
      "latitude": 51.5322,
      "longitude": -0.1271
    },
    {
      "name": "London St Pancras",
      "latitude": 51.5322,
      "longitude": -0.1271
    },
    {
      "name": "Frankfurt Hauptbahnhof",
      "latitude": 50.1071,
      "longitude": 8.6636
    },
    {
      "name": "Frankfurt Hauptbahnhof",
      "latitude": 50.1071,
      "longitude": 8.6636
    },
    {
      "name": "Frankfurt Hauptbahnhof",
      "latitude": 50.1071,
      "longitude": 8.6636
    },
    {
      "name": "Frankfurt Hauptbahnhof",
      "latitude": 50.1071,
      "longitude": 8.6636
    },
    {
      "name": "Frankfurt Hauptbahnhof",
      "latitude": 50.1071,
      "longitude": 8.6636
    },
    {
      "name": "Frankfurt Hauptbahnhof",
      "latitude": 50.1071,
      "longitude": 8.6636
    },
    {
      "name": "Z\u00fcrich Hauptbahnhof",
      "latitude": 47.3783,
      "longitude": 8.5403
    },
    {
      "name": "Z\u00fcrich Hauptbahnhof",
      "latitude": 47.3783,
      "longitude": 8.5403
    },
    {
      "name": "Z\u00fcrich Hauptbahnhof",
      "latitude": 47.3783,
      "longitude": 8.5403
    },
    {
      "name": "Z\u00fcrich Hauptbahnhof",
      "latitude": 47.3783,
      "longitude": 8.5403
    },
    {
      "name": "Z\u00fcrich Hauptbahnhof",
      "latitude": 47.3783,
      "longitude": 8.5403
    },
    {
      "name": "Z\u00fcrich Hauptbahnhof",
      "latitude": 47.3783,
      "longitude": 8.5403
    },
    {
      "name": "Z\u00fcrich Hauptbahnhof",
      "latitude": 47.3783,
      "longitude": 8.5403
    },
    {
      "name": "Wien Hauptbahnhof",
      "latitude": 48.1855,
      "longitude": 16.3798
    },
    {
      "name": "Wien Hauptbahnhof",
      "latitude": 48.1855,
      "longitude": 16.3798
    },
    {
      "name": "Wien Hauptbahnhof",
      "latitude": 48.1855,
      "longitude": 16.3798
    },
    {
      "name": "Wien Hauptbahnhof",
      "latitude": 48.1855,
      "longitude": 16.3798
    },
    {
      "name": "Wien Hauptbahnhof",
      "latitude": 48.1855,
      "longitude": 16.3798
    },
    {
      "name": "Wien Hauptbahnhof",
      "latitude": 48.1855,
      "longitude": 16.3798
    },
    {
      "name": "Milano Centrale",
      "latitude": 45.4862,
      "longitude": 9.205
    },
    {
      "name": "Milano Centrale",
      "latitude": 45.4862,
      "longitude": 9.205
    },
    {
      "name": "Milano Centrale",
      "latitude": 45.4862,
      "longitude": 9.205
    },
    {
      "name": "Milano Centrale",
      "latitude": 45.4862,
      "longitude": 9.205
    },
    {
      "name": "Milano Centrale",
      "latitude": 45.4862,
      "longitude": 9.205
    },
    {
      "name": "Milano Centrale",
      "latitude": 45.4862,
      "longitude": 9.205
    },
    {
      "name": "Milano Centrale",
      "latitude": 45.4862,
      "longitude": 9.205
    },
    {
      "name": "Barcelona Sants",
      "latitude": 41.3793,
      "longitude": 2.14
    },
    {
      "name": "Barcelona Sants",
      "latitude": 41.3793,
      "longitude": 2.14
    },
    {
      "name": "Barcelona Sants",
      "latitude": 41.3793,
      "longitude": 2.14
    },
    {
      "name": "Barcelona Sants",
      "latitude": 41.3793,
      "longitude": 2.14
    },
    {
      "name": "Barcelona Sants",
      "latitude": 41.3793,
      "longitude": 2.14
    },
    {
      "name": "Barcelona Sants",
      "latitude": 41.3793,
      "longitude": 2.14
    },
    {
      "name": "Copenhagen Central",
      "latitude": 55.6726,
      "longitude": 12.5645
    },
    {
      "name": "Copenhagen Central",
      "latitude": 55.6726,
      "longitude": 12.5645
    },
    {
      "name": "Copenhagen Central",
      "latitude": 55.6726,
      "longitude": 12.5645
    },
    {
      "name": "Copenhagen Central",
      "latitude": 55.6726,
      "longitude": 12.5645
    },
    {
      "name": "Copenhagen Central",
      "latitude": 55.6726,
      "longitude": 12.5645
    },
    {
      "name": "Copenhagen Central",
      "latitude": 55.6726,
      "longitude": 12.5645
    },
    {
      "name": "Copenhagen Central",
      "latitude": 55.6726,
      "longitude": 12.5645
    },
    {
      "name": "Prague Main Station",
      "latitude": 50.0831,
      "longitude": 14.4353
    },
    {
      "name": "Prague Main Station",
      "latitude": 50.0831,
      "longitude": 14.4353
    },
    {
      "name": "Prague Main Station",
      "latitude": 50.0831,
      "longitude": 14.4353
    },
    {
      "name": "Prague Main Station",
      "latitude": 50.0831,
      "longitude": 14.4353
    },
    {
      "name": "Prague Main Station",
      "latitude": 50.0831,
      "longitude": 14.4353
    },
    {
      "name": "Prague Main Station",
      "latitude": 50.0831,
      "longitude": 14.4353
    },
    {
      "name": "Budapest Keleti",
      "latitude": 47.5006,
      "longitude": 19.084
    },
    {
      "name": "Budapest Keleti",
      "latitude": 47.5006,
      "longitude": 19.084
    },
    {
      "name": "Budapest Keleti",
      "latitude": 47.5006,
      "longitude": 19.084
    },
    {
      "name": "Budapest Keleti",
      "latitude": 47.5006,
      "longitude": 19.084
    },
    {
      "name": "Budapest Keleti",
      "latitude": 47.5006,
      "longitude": 19.084
    },
    {
      "name": "Budapest Keleti",
      "latitude": 47.5006,
      "longitude": 19.084
    },
    {
      "name": "Budapest Keleti",
      "latitude": 47.5006,
      "longitude": 19.084
    },
    {
      "name": "Stockholm Central",
      "latitude": 59.3307,
      "longitude": 18.058
    },
    {
      "name": "Stockholm Central",
      "latitude": 59.3307,
      "longitude": 18.058
    },
    {
      "name": "Stockholm Central",
      "latitude": 59.3307,
      "longitude": 18.058
    },
    {
      "name": "Stockholm Central",
      "latitude": 59.3307,
      "longitude": 18.058
    },
    {
      "name": "Stockholm Central",
      "latitude": 59.3307,
      "longitude": 18.058
    },
    {
      "name": "Stockholm Central",
      "latitude": 59.3307,
      "longitude": 18.058
    },
    {
      "name": "Berlin Hauptbahnhof",
      "latitude": 52.525,
      "longitude": 13.369
    },
    {
      "name": "Berlin Hauptbahnhof",
      "latitude": 52.525,
      "longitude": 13.369
    },
    {
      "name": "Berlin Hauptbahnhof",
      "latitude": 52.525,
      "longitude": 13.369
    },
    {
      "name": "Berlin Hauptbahnhof",
      "latitude": 52.525,
      "longitude": 13.369
    },
    {
      "name": "Berlin Hauptbahnhof",
      "latitude": 52.525,
      "longitude": 13.369
    },
    {
      "name": "Berlin Hauptbahnhof",
      "latitude": 52.525,
      "longitude": 13.369
    },
    {
      "name": "Berlin Hauptbahnhof",
      "latitude": 52.525,
      "longitude": 13.369
    },
    {
      "name": "Berlin Hauptbahnhof",
      "latitude": 52.525,
      "longitude": 13.369
    },
    {
      "name": "Berlin Hauptbahnhof",
      "latitude": 52.525,
      "longitude": 13.369
    },
    {
      "name": "Berlin Hauptbahnhof",
      "latitude": 52.525,
      "longitude": 13.369
    },
    {
      "name": "Berlin Hauptbahnhof",
      "latitude": 52.525,
      "longitude": 13.369
    },
    {
      "name": "Berlin Hauptbahnhof",
      "latitude": 52.525,
      "longitude": 13.369
    },
    {
      "name": "Berlin Hauptbahnhof",
      "latitude": 52.525,
      "longitude": 13.369
    },
    {
      "name": "Berlin Hauptbahnhof",
      "latitude": 52.525,
      "longitude": 13.369
    },
    {
      "name": "Berlin Hauptbahnhof",
      "latitude": 52.525,
      "longitude": 13.369
    },
    {
      "name": "Berlin Hauptbahnhof",
      "latitude": 52.525,
      "longitude": 13.369
    },
    {
      "name": "Berlin Hauptbahnhof",
      "latitude": 52.525,
      "longitude": 13.369
    },
    {
      "name": "Berlin Hauptbahnhof",
      "latitude": 52.525,
      "longitude": 13.369
    },
    {
      "name": "Berlin Hauptbahnhof",
      "latitude": 52.525,
      "longitude": 13.369
    },
    {
      "name": "Berlin Hauptbahnhof",
      "latitude": 52.525,
      "longitude": 13.369
    },
    {
      "name": "Berlin Hauptbahnhof",
      "latitude": 52.525,
      "longitude": 13.369
    },
    {
      "name": "Berlin Hauptbahnhof",
      "latitude": 52.525,
      "longitude": 13.369
    },
    {
      "name": "Berlin Hauptbahnhof",
      "latitude": 52.525,
      "longitude": 13.369
    },
    {
      "name": "Berlin Hauptbahnhof",
      "latitude": 52.525,
      "longitude": 13.369
    },
    {
      "name": "Berlin Hauptbahnhof",
      "latitude": 52.525,
      "longitude": 13.369
    },
    {
      "name": "Berlin Hauptbahnhof",
      "latitude": 52.525,
      "longitude": 13.369
    },
    {
      "name": "Berlin Hauptbahnhof",
      "latitude": 52.525,
      "longitude": 13.369
    },
    {
      "name": "Berlin Hauptbahnhof",
      "latitude": 52.525,
      "longitude": 13.369
    },
    {
      "name": "Berlin Hauptbahnhof",
      "latitude": 52.525,
      "longitude": 13.369
    },
    {
      "name": "Berlin Hauptbahnhof",
      "latitude": 52.525,
      "longitude": 13.369
    },
    {
      "name": "Berlin Hauptbahnhof",
      "latitude": 52.525,
      "longitude": 13.369
    },
    {
      "name": "Berlin Hauptbahnhof",
      "latitude": 52.525,
      "longitude": 13.369
    },
    {
      "name": "Berlin Hauptbahnhof",
      "latitude": 52.525,
      "longitude": 13.369
    },
    {
      "name": "Berlin Hauptbahnhof",
      "latitude": 52.525,
      "longitude": 13.369
    },
    {
      "name": "Berlin Hauptbahnhof",
      "latitude": 52.525,
      "longitude": 13.369
    },
    {
      "name": "Berlin Hauptbahnhof",
      "latitude": 52.525,
      "longitude": 13.369
    },
    {
      "name": "Berlin Hauptbahnhof",
      "latitude": 52.525,
      "longitude": 13.369
    },
    {
      "name": "Berlin Hauptbahnhof",
      "latitude": 52.525,
      "longitude": 13.369
    },
    {
      "name": "Berlin Hauptbahnhof",
      "latitude": 52.525,
      "longitude": 13.369
    },
    {
      "name": "Berlin Hauptbahnhof",
      "latitude": 52.525,
      "longitude": 13.369
    },
    {
      "name": "Berlin Hauptbahnhof",
      "latitude": 52.525,
      "longitude": 13.369
    },
    {
      "name": "Berlin Hauptbahnhof",
      "latitude": 52.525,
      "longitude": 13.369
    },
    {
      "name": "Berlin Hauptbahnhof",
      "latitude": 52.525,
      "longitude": 13.369
    },
    {
      "name": "Berlin Hauptbahnhof",
      "latitude": 52.525,
      "longitude": 13.369
    },
    {
      "name": "Berlin Hauptbahnhof",
      "latitude": 52.525,
      "longitude": 13.369
    },
    {
      "name": "Berlin Hauptbahnhof",
      "latitude": 52.525,
      "longitude": 13.369
    },
    {
      "name": "Berlin Hauptbahnhof",
      "latitude": 52.525,
      "longitude": 13.369
    },
    {
      "name": "Berlin Hauptbahnhof",
      "latitude": 52.525,
      "longitude": 13.369
    },
    {
      "name": "Berlin Hauptbahnhof",
      "latitude": 52.525,
      "longitude": 13.369
    },
    {
      "name": "Berlin Hauptbahnhof",
      "latitude": 52.525,
      "longitude": 13.369
    },
    {
      "name": "Berlin Hauptbahnhof",
      "latitude": 52.525,
      "longitude": 13.369
    },
    {
      "name": "Berlin Hauptbahnhof",
      "latitude": 52.525,
      "longitude": 13.369
    },
    {
      "name": "Berlin Hauptbahnhof",
      "latitude": 52.525,
      "longitude": 13.369
    },
    {
      "name": "Berlin Hauptbahnhof",
      "latitude": 52.525,
      "longitude": 13.369
    },
    {
      "name": "Berlin Hauptbahnhof",
      "latitude": 52.525,
      "longitude": 13.369
    },
    {
      "name": "Berlin Hauptbahnhof",
      "latitude": 52.525,
      "longitude": 13.369
    },
    {
      "name": "Berlin Hauptbahnhof",
      "latitude": 52.525,
      "longitude": 13.369
    },
    {
      "name": "Berlin Hauptbahnhof",
      "latitude": 52.525,
      "longitude": 13.369
    },
    {
      "name": "Berlin Hauptbahnhof",
      "latitude": 52.525,
      "longitude": 13.369
    },
    {
      "name": "Berlin Hauptbahnhof",
      "latitude": 52.525,
      "longitude": 13.369
    },
    {
      "name": "Berlin Hauptbahnhof",
      "latitude": 52.525,
      "longitude": 13.369
    },
    {
      "name": "Berlin Hauptbahnhof",
      "latitude": 52.525,
      "longitude": 13.369
    },
    {
      "name": "Berlin Hauptbahnhof",
      "latitude": 52.525,
      "longitude": 13.369
    },
    {
      "name": "Berlin Hauptbahnhof",
      "latitude": 52.525,
      "longitude": 13.369
    },
    {
      "name": "Berlin Hauptbahnhof",
      "latitude": 52.525,
      "longitude": 13.369
    },
    {
      "name": "Berlin Hauptbahnhof",
      "latitude": 52.525,
      "longitude": 13.369
    },
    {
      "name": "Berlin Hauptbahnhof",
      "latitude": 52.525,
      "longitude": 13.369
    },
    {
      "name": "Berlin Hauptbahnhof",
      "latitude": 52.525,
      "longitude": 13.369
    },
    {
      "name": "Berlin Hauptbahnhof",
      "latitude": 52.525,
      "longitude": 13.369
    },
    {
      "name": "Berlin Hauptbahnhof",
      "latitude": 52.525,
      "longitude": 13.369
    },
    {
      "name": "Berlin Hauptbahnhof",
      "latitude": 52.525,
      "longitude": 13.369
    },
    {
      "name": "Berlin Hauptbahnhof",
      "latitude": 52.525,
      "longitude": 13.369
    },
    {
      "name": "Berlin Hauptbahnhof",
      "latitude": 52.525,
      "longitude": 13.369
    },
    {
      "name": "Berlin Hauptbahnhof",
      "latitude": 52.525,
      "longitude": 13.369
    },
    {
      "name": "Berlin Hauptbahnhof",
      "latitude": 52.525,
      "longitude": 13.369
    },
    {
      "name": "Berlin Hauptbahnhof",
      "latitude": 52.525,
      "longitude": 13.369
    },
    {
      "name": "Berlin Hauptbahnhof",
      "latitude": 52.525,
      "longitude": 13.369
    },
    {
      "name": "Berlin Hauptbahnhof",
      "latitude": 52.525,
      "longitude": 13.369
    },
    {
      "name": "Berlin Hauptbahnhof",
      "latitude": 52.525,
      "longitude": 13.369
    },
    {
      "name": "Berlin Hauptbahnhof",
      "latitude": 52.525,
      "longitude": 13.369
    },
    {
      "name": "Berlin Hauptbahnhof",
      "latitude": 52.525,
      "longitude": 13.369
    },
    {
      "name": "Berlin Hauptbahnhof",
      "latitude": 52.525,
      "longitude": 13.369
    },
    {
      "name": "Berlin Hauptbahnhof",
      "latitude": 52.525,
      "longitude": 13.369
    },
    {
      "name": "Berlin Hauptbahnhof",
      "latitude": 52.525,
      "longitude": 13.369
    },
    {
      "name": "Berlin Hauptbahnhof",
      "latitude": 52.525,
      "longitude": 13.369
    },
    {
      "name": "Berlin Hauptbahnhof",
      "latitude": 52.525,
      "longitude": 13.369
    },
    {
      "name": "Berlin Hauptbahnhof",
      "latitude": 52.525,
      "longitude": 13.369
    },
    {
      "name": "Berlin Hauptbahnhof",
      "latitude": 52.525,
      "longitude": 13.369
    },
    {
      "name": "Berlin Hauptbahnhof",
      "latitude": 52.525,
      "longitude": 13.369
    },
    {
      "name": "Berlin Hauptbahnhof",
      "latitude": 52.525,
      "longitude": 13.369
    },
    {
      "name": "Berlin Hauptbahnhof",
      "latitude": 52.525,
      "longitude": 13.369
    },
    {
      "name": "Berlin Hauptbahnhof",
      "latitude": 52.525,
      "longitude": 13.369
    },
    {
      "name": "Berlin Hauptbahnhof",
      "latitude": 52.525,
      "longitude": 13.369
    },
    {
      "name": "Berlin Hauptbahnhof",
      "latitude": 52.525,
      "longitude": 13.369
    },