{"stations": [{"name": "Berlin Hauptbahnhof", "latitude": 52.525, "longitude": 13.369}, {"name": "M\u00fcnchen Hauptbahnhof", "latitude": 48.1402, "longitude": 11.56}, {"name": "Frankfurt Hauptbahnhof", "latitude": 50.1071, "longitude": 8.6636}, {"name": "Hamburg Hauptbahnhof", "latitude": 53.5533, "longitude": 10.0064}, {"name": "K\u00f6ln Hauptbahnhof", "latitude": 50.9432, "longitude": 6.9587}, {"name": "Paris Gare du Nord", "latitude": 48.8809, "longitude": 2.3553}, {"name": "Lyon Part-Dieu", "latitude": 45.7601, "longitude": 4.8591}, {"name": "Marseille Saint-Charles", "latitude": 43.3036, "longitude": 5.3831}, {"name": "Bordeaux Saint-Jean", "latitude": 44.8263, "longitude": -0.5553}, {"name": "Lille Europe", "latitude": 50.6392, "longitude": 3.0728}, {"name": "Roma Termini", "latitude": 41.901, "longitude": 12.5011}, {"name": "Milano Centrale", "latitude": 45.4862, "longitude": 9.205}, {"name": "Firenze Santa Maria Novella", "latitude": 43.7764, "longitude": 11.2481}, {"name": "Venezia Santa Lucia", "latitude": 45.4416, "longitude": 12.3254}, {"name": "Napoli Centrale", "latitude": 40.8518, "longitude": 14.272}, {"name": "Brussels Midi", "latitude": 50.8357, "longitude": 4.3356}, {"name": "Amsterdam Centraal", "latitude": 52.3789, "longitude": 4.9003}, {"name": "Z\u00fcrich Hauptbahnhof", "latitude": 47.3783, "longitude": 8.5403}, {"name": "London St Pancras", "latitude": 51.5322, "longitude": -0.1271}, {"name": "Wien Hauptbahnhof", "latitude": 48.1855, "longitude": 16.3798}], "connections": {"Berlin Hauptbahnhof": [{"name": "M\u00fcnchen Hauptbahnhof", "latitude": 48.1402, "longitude": 11.56, "operator": "Deutsche Bahn", "country": "Germany"}, {"name": "Frankfurt Hauptbahnhof", "latitude": 50.1071, "longitude": 8.6636, "operator": "Deutsche Bahn", "country": "Germany"}, {"name": "Hamburg Hauptbahnhof", "latitude": 53.5533, "longitude": 10.0064, "operator": "Deutsche Bahn", "country": "Germany"}, {"name": "K\u00f6ln Hauptbahnhof", "latitude": 50.9432, "longitude": 6.9587, "operator": "Deutsche Bahn", "country": "Germany"}], "M\u00fcnchen Hauptbahnhof": [{"name": "Berlin Hauptbahnhof", "latitude": 52.525, "longitude": 13.369, "operator": "Deutsche Bahn", "country": "Germany"}, {"name": "Frankfurt Hauptbahnhof", "latitude": 50.1071, "longitude": 8.6636, "operator": "Deutsche Bahn", "country": "Germany"}, {"name": "Hamburg Hauptbahnhof", "latitude": 53.5533, "longitude": 10.0064, "operator": "Deutsche Bahn", "country": "Germany"}, {"name": "K\u00f6ln Hauptbahnhof", "latitude": 50.9432, "longitude": 6.9587, "operator": "Deutsche Bahn", "country": "Germany"}], "Frankfurt Hauptbahnhof": [{"name": "Berlin Hauptbahnhof", "latitude": 52.525, "longitude": 13.369, "operator": "Deutsche Bahn", "country": "Germany"}, {"name": "M\u00fcnchen Hauptbahnhof", "latitude": 48.1402, "longitude": 11.56, "operator": "Deutsche Bahn", "country": "Germany"}, {"name": "Hamburg Hauptbahnhof", "latitude": 53.5533, "longitude": 10.0064, "operator": "Deutsche Bahn", "country": "Germany"}, {"name": "K\u00f6ln Hauptbahnhof", "latitude": 50.9432, "longitude": 6.9587, "operator": "Deutsche Bahn", "country": "Germany"}, {"name": "Paris Gare du Nord", "latitude": 48.8809, "longitude": 2.3553, "operator": "International", "country": "Germany-France"}, {"name": "Brussels Midi", "latitude": 50.8357, "longitude": 4.3356, "operator": "International", "country": "Germany-Belgium"}, {"name": "London St Pancras", "latitude": 51.5322, "longitude": -0.1271, "operator": "International", "country": "Germany-United Kingdom"}, {"name": "Wien Hauptbahnhof", "latitude": 48.1855, "longitude": 16.3798, "operator": "International", "country": "Germany-Austria"}], "Hamburg Hauptbahnhof": [{"name": "Berlin Hauptbahnhof", "latitude": 52.525, "longitude": 13.369, "operator": "Deutsche Bahn", "country": "Germany"}, {"name": "M\u00fcnchen Hauptbahnhof", "latitude": 48.1402, "longitude": 11.56, "operator": "Deutsche Bahn", "country": "Germany"}, {"name": "Frankfurt Hauptbahnhof", "latitude": 50.1071, "longitude": 8.6636, "operator": "Deutsche Bahn", "country": "Germany"}, {"name": "K\u00f6ln Hauptbahnhof", "latitude": 50.9432, "longitude": 6.9587, "operator": "Deutsche Bahn", "country": "Germany"}], "K\u00f6ln Hauptbahnhof": [{"name": "Berlin Hauptbahnhof", "latitude": 52.525, "longitude": 13.369, "operator": "Deutsche Bahn", "country": "Germany"}, {"name": "M\u00fcnchen Hauptbahnhof", "latitude": 48.1402, "longitude": 11.56, "operator": "Deutsche Bahn", "country": "Germany"}, {"name": "Frankfurt Hauptbahnhof", "latitude": 50.1071, "longitude": 8.6636, "operator": "Deutsche Bahn", "country": "Germany"}, {"name": "Hamburg Hauptbahnhof", "latitude": 53.5533, "longitude": 10.0064, "operator": "Deutsche Bahn", "country": "Germany"}], "Paris Gare du Nord": [{"name": "Lyon Part-Dieu", "latitude": 45.7601, "longitude": 4.8591, "operator": "SNCF", "country": "France"}, {"name": "Marseille Saint-Charles", "latitude": 43.3036, "longitude": 5.3831, "operator": "SNCF", "country": "France"}, {"name": "Bordeaux Saint-Jean", "latitude": 44.8263, "longitude": -0.5553, "operator": "SNCF", "country": "France"}, {"name": "Lille Europe", "latitude": 50.6392, "longitude": 3.0728, "operator": "SNCF", "country": "France"}, {"name": "Brussels Midi", "latitude": 50.8357, "longitude": 4.3356, "operator": "International", "country": "France-Belgium"}, {"name": "Amsterdam Centraal", "latitude": 52.3789, "longitude": 4.9003, "operator": "International", "country": "France-Netherlands"}, {"name": "Frankfurt Hauptbahnhof", "latitude": 50.1071, "longitude": 8.6636, "operator": "International", "country": "France-Germany"}, {"name": "Z\u00fcrich Hauptbahnhof", "latitude": 47.3783, "longitude": 8.5403, "operator": "International", "country": "France-Switzerland"}], "Lyon Part-Dieu": [{"name": "Paris Gare du Nord", "latitude": 48.8809, "longitude": 2.3553, "operator": "SNCF", "country": "France"}, {"name": "Marseille Saint-Charles", "latitude": 43.3036, "longitude": 5.3831, "operator": "SNCF", "country": "France"}, {"name": "Bordeaux Saint-Jean", "latitude": 44.8263, "longitude": -0.5553, "operator": "SNCF", "country": "France"}, {"name": "Lille Europe", "latitude": 50.6392, "longitude": 3.0728, "operator": "SNCF", "country": "France"}], "Marseille Saint-Charles": [{"name": "Paris Gare du Nord", "latitude": 48.8809, "longitude": 2.3553, "operator": "SNCF", "country": "France"}, {"name": "Lyon Part-Dieu", "latitude": 45.7601, "longitude": 4.8591, "operator": "SNCF", "country": "France"}, {"name": "Bordeaux Saint-Jean", "latitude": 44.8263, "longitude": -0.5553, "operator": "SNCF", "country": "France"}, {"name": "Lille Europe", "latitude": 50.6392, "longitude": 3.0728, "operator": "SNCF", "country": "France"}], "Bordeaux Saint-Jean": [{"name": "Paris Gare du Nord", "latitude": 48.8809, "longitude": 2.3553, "operator": "SNCF", "country": "France"}, {"name": "Lyon Part-Dieu", "latitude": 45.7601, "longitude": 4.8591, "operator": "SNCF", "country": "France"}, {"name": "Marseille Saint-Charles", "latitude": 43.3036, "longitude": 5.3831, "operator": "SNCF", "country": "France"}, {"name": "Lille Europe", "latitude": 50.6392, "longitude": 3.0728, "operator": "SNCF", "country": "France"}], "Lille Europe": [{"name": "Paris Gare du Nord", "latitude": 48.8809, "longitude": 2.3553, "operator": "SNCF", "country": "France"}, {"name": "Lyon Part-Dieu", "latitude": 45.7601, "longitude": 4.8591, "operator": "SNCF", "country": "France"}, {"name": "Marseille Saint-Charles", "latitude": 43.3036, "longitude": 5.3831, "operator": "SNCF", "country": "France"}, {"name": "Bordeaux Saint-Jean", "latitude": 44.8263, "longitude": -0.5553, "operator": "SNCF", "country": "France"}], "Roma Termini": [{"name": "Milano Centrale", "latitude": 45.4862, "longitude": 9.205, "operator": "Trenitalia", "country": "Italy"}, {"name": "Firenze Santa Maria Novella", "latitude": 43.7764, "longitude": 11.2481, "operator": "Trenitalia", "country": "Italy"}, {"name": "Venezia Santa Lucia", "latitude": 45.4416, "longitude": 12.3254, "operator": "Trenitalia", "country": "Italy"}, {"name": "Napoli Centrale", "latitude": 40.8518, "longitude": 14.272, "operator": "Trenitalia", "country": "Italy"}], "Milano Centrale": [{"name": "Roma Termini", "latitude": 41.901, "longitude": 12.5011, "operator": "Trenitalia", "country": "Italy"}, {"name": "Firenze Santa Maria Novella", "latitude": 43.7764, "longitude": 11.2481, "operator": "Trenitalia", "country": "Italy"}, {"name": "Venezia Santa Lucia", "latitude": 45.4416, "longitude": 12.3254, "operator": "Trenitalia", "country": "Italy"}, {"name": "Napoli Centrale", "latitude": 40.8518, "longitude": 14.272, "operator": "Trenitalia", "country": "Italy"}], "Firenze Santa Maria Novella": [{"name": "Roma Termini", "latitude": 41.901, "longitude": 12.5011, "operator": "Trenitalia", "country": "Italy"}, {"name": "Milano Centrale", "latitude": 45.4862, "longitude": 9.205, "operator": "Trenitalia", "country": "Italy"}, {"name": "Venezia Santa Lucia", "latitude": 45.4416, "longitude": 12.3254, "operator": "Trenitalia", "country": "Italy"}, {"name": "Napoli Centrale", "latitude": 40.8518, "longitude": 14.272, "operator": "Trenitalia", "country": "Italy"}], "Venezia Santa Lucia": [{"name": "Roma Termini", "latitude": 41.901, "longitude": 12.5011, "operator": "Trenitalia", "country": "Italy"}, {"name": "Milano Centrale", "latitude": 45.4862, "longitude": 9.205, "operator": "Trenitalia", "country": "Italy"}, {"name": "Firenze Santa Maria Novella", "latitude": 43.7764, "longitude": 11.2481, "operator": "Trenitalia", "country": "Italy"}, {"name": "Napoli Centrale", "latitude": 40.8518, "longitude": 14.272, "operator": "Trenitalia", "country": "Italy"}], "Napoli Centrale": [{"name": "Roma Termini", "latitude": 41.901, "longitude": 12.5011, "operator": "Trenitalia", "country": "Italy"}, {"name": "Milano Centrale", "latitude": 45.4862, "longitude": 9.205, "operator": "Trenitalia", "country": "Italy"}, {"name": "Firenze Santa Maria Novella", "latitude": 43.7764, "longitude": 11.2481, "operator": "Trenitalia", "country": "Italy"}, {"name": "Venezia Santa Lucia", "latitude": 45.4416, "longitude": 12.3254, "operator": "Trenitalia", "country": "Italy"}], "Brussels Midi": [{"name": "Paris Gare du Nord", "latitude": 48.8809, "longitude": 2.3553, "operator": "International", "country": "Belgium-France"}, {"name": "London St Pancras", "latitude": 51.5322, "longitude": -0.1271, "operator": "International", "country": "Belgium-United Kingdom"}, {"name": "Frankfurt Hauptbahnhof", "latitude": 50.1071, "longitude": 8.6636, "operator": "International", "country": "Belgium-Germany"}, {"name": "Wien Hauptbahnhof", "latitude": 48.1855, "longitude": 16.3798, "operator": "International", "country": "Belgium-Austria"}], "Amsterdam Centraal": [{"name": "Paris Gare du Nord", "latitude": 48.8809, "longitude": 2.3553, "operator": "International", "country": "Netherlands-France"}, {"name": "London St Pancras", "latitude": 51.5322, "longitude": -0.1271, "operator": "International", "country": "Netherlands-United Kingdom"}, {"name": "Z\u00fcrich Hauptbahnhof", "latitude": 47.3783, "longitude": 8.5403, "operator": "International", "country": "Netherlands-Switzerland"}, {"name": "Wien Hauptbahnhof", "latitude": 48.1855, "longitude": 16.3798, "operator": "International", "country": "Netherlands-Austria"}], "London St Pancras": [{"name": "Brussels Midi", "latitude": 50.8357, "longitude": 4.3356, "operator": "International", "country": "United Kingdom-Belgium"}, {"name": "Amsterdam Centraal", "latitude": 52.3789, "longitude": 4.9003, "operator": "International", "country": "United Kingdom-Netherlands"}, {"name": "Frankfurt Hauptbahnhof", "latitude": 50.1071, "longitude": 8.6636, "operator": "International", "country": "United Kingdom-Germany"}, {"name": "Z\u00fcrich Hauptbahnhof", "latitude": 47.3783, "longitude": 8.5403, "operator": "International", "country": "United Kingdom-Switzerland"}], "Z\u00fcrich Hauptbahnhof": [{"name": "Paris Gare du Nord", "latitude": 48.8809, "longitude": 2.3553, "operator": "International", "country": "Switzerland-France"}, {"name": "Amsterdam Centraal", "latitude": 52.3789, "longitude": 4.9003, "operator": "International", "country": "Switzerland-Netherlands"}, {"name": "London St Pancras", "latitude": 51.5322, "longitude": -0.1271, "operator": "International", "country": "Switzerland-United Kingdom"}, {"name": "Wien Hauptbahnhof", "latitude": 48.1855, "longitude": 16.3798, "operator": "International", "country": "Switzerland-Austria"}], "Wien Hauptbahnhof": [{"name": "Brussels Midi", "latitude": 50.8357, "longitude": 4.3356, "operator": "International", "country": "Austria-Belgium"}, {"name": "Amsterdam Centraal", "latitude": 52.3789, "longitude": 4.9003, "operator": "International", "country": "Austria-Netherlands"}, {"name": "Frankfurt Hauptbahnhof", "latitude": 50.1071, "longitude": 8.6636, "operator": "International", "country": "Austria-Germany"}, {"name": "Z\u00fcrich Hauptbahnhof", "latitude": 47.3783, "longitude": 8.5403, "operator": "International", "country": "Austria-Switzerland"}]}}